ROG3,Ctry,PeopleID3,ROP3,PeopNameAcrossCountries,PeopNameInCountry,Population,JPScale,LeastReached,ROL3,PrimaryLanguageName,BibleStatus,RLG3,PrimaryReligion,PercentAdherents,PercentEvangelical,PeopleID1,ROP1,AffinityBloc,PeopleID2,ROP2,PeopleCluster,CountOfCountries,RegionCode,RegionName,ROG2,Continent,10_40Window,IndigenousCode,WorkersNeeded,Frontier,Latitude,Longitude
CH,China,18385,113978,"A Che","A Che",42000,1,Y,yif,Ache,3,4,"Ethnic Religions",0.000,0.000,23,A014,"Tibetan-Himalayan Peoples",317,C0229,"Tibeto-Burman, other",1,3,"Asia, Northeast",ASI,Asia,Y,Y,1,Y,24.68311,101.97421
CH,China,18399,113993,A'ou,A'ou,2800,1,Y,cmn,"Chinese, Mandarin",5,4,"Ethnic Religions",0.000,0.000,20,A011,"Southeast Asian Peoples",295,C0207,Tai,1,3,"Asia, Northeast",ASI,Asia,Y,Y,1,Y,26.940644878159,106.02223729122
CH,China,18388,113981,A-Hmao,A-Hmao,452000,5,N,hmd,"Miao, Large Flowery",5,1,Christianity,80.000,75.000,20,A011,"Southeast Asian Peoples",230,C0138,"Miao / Hmong",1,3,"Asia, Northeast",ASI,Asia,Y,Y,,N,27.868189999969,104.06038000014
CH,China,10146,100038,Achang,Achang,34000,4,N,acn,Achang,5,4,"Ethnic Religions",7.000,7.000,23,A014,"Tibetan-Himalayan Peoples",317,C0229,"Tibeto-Burman, other",2,3,"Asia, Northeast",ASI,Asia,Y,Y,,N,24.404923922101,97.78476704916
CH,China,18384,113977,"Achang, Husa","Achang, Husa",7500,1,Y,acn,Achang,5,4,"Ethnic Religions",2.000,2.000,23,A014,"Tibetan-Himalayan Peoples",317,C0229,"Tibeto-Burman, other",1,3,"Asia, Northeast",ASI,Asia,Y,Y,1,N,24.40347417899,97.871655614315
CH,China,18386,113979,Adi,Adi,1200,1,Y,adi,Adi,5,4,"Ethnic Religions",0.000,0.000,21,A012,"South Asian Peoples",103,C0004,Adi,3,3,"Asia, Northeast",ASI,Asia,Y,Y,1,Y,28.482663132897,92.542649710016
CH,China,17939,113427,"Adi Ramo","Adi Ramo",200,1,Y,adi,Adi,5,2,Buddhism,0.000,0.000,21,A012,"South Asian Peoples",103,C0004,Adi,2,3,"Asia, Northeast",ASI,Asia,Y,N,1,Y,29.4,94.34
CH,China,18387,113980,Adu,Adu,8200,1,Y,cmn,"Chinese, Mandarin",5,7,Non-Religious,0.000,0.000,23,A014,"Tibetan-Himalayan Peoples",317,C0229,"Tibeto-Burman, other",1,3,"Asia, Northeast",ASI,Asia,Y,Y,1,Y,25.931359644143,106.28422769113
CH,China,10195,100146,Ai-Cham,Ai-Cham,3100,1,Y,aih,Ai-Cham,1,4,"Ethnic Religions",0.500,0.200,20,A011,"Southeast Asian Peoples",150,C0054,Bouyei,1,3,"Asia, Northeast",ASI,Asia,Y,Y,1,N,25.48886,107.83808
CH,China,10522,100665,"Ainu (China)","Ainu (China)",12000,1,Y,aib,"Ainu (China)",1,6,Islam,0.000,0.000,24,A015,"Turkic Peoples",311,C0223,Ural-Siberian,1,3,"Asia, Northeast",ASI,Asia,Y,Y,1,Y,38.930205258566,76.169595641825
CH,China,18899,114852,Akeu,Akeu,11000,1,Y,aeu,Akeu,4,4,"Ethnic Religions",0.000,0.000,23,A014,"Tibetan-Himalayan Peoples",317,C0229,"Tibeto-Burman, other",4,3,"Asia, Northeast",ASI,Asia,Y,Y,1,Y,22.19587,101.08233
CH,China,10223,100185,Akha,Akha,259000,1,Y,ahk,Akha,5,4,"Ethnic Religions",0.350,0.309,23,A014,"Tibetan-Himalayan Peoples",185,C0089,Hani,5,3,"Asia, Northeast",ASI,Asia,Y,N,5,N,21.952,100.09309
CH,China,18389,113982,"Akto Turkmen","Akto Turkmen",2900,1,Y,uig,Uyghur,5,6,Islam,0.000,0.000,24,A015,"Turkic Peoples",204,C0110,Kyrgyz,1,3,"Asia, Northeast",ASI,Asia,Y,Y,1,Y,39.153385214656,75.938287562721
CH,China,18390,113983,Aling,Aling,8300,1,Y,yig,"Nasu, Wusa",4,4,"Ethnic Religions",0.000,0.000,23,A014,"Tibetan-Himalayan Peoples",317,C0229,"Tibeto-Burman, other",1,3,"Asia, Northeast",ASI,Asia,Y,Y,1,Y,24.938008863119,103.80294450668
CH,China,18886,114830,Alu,Alu,4000,1,Y,nos,"Nisu, Eastern",1,4,"Ethnic Religions",0.000,0.000,23,A014,"Tibetan-Himalayan Peoples",317,C0229,"Tibeto-Burman, other",3,3,"Asia, Northeast",ASI,Asia,Y,N,1,Y,23.10906,102.94476
CH,China,21074,116100,Alugu,Alugu,3600,1,Y,aub,Alugu,1,4,"Ethnic Religions",0.000,0.000,23,A014,"Tibetan-Himalayan Peoples",317,C0229,"Tibeto-Burman, other",1,3,"Asia, Northeast",ASI,Asia,Y,Y,1,Y,23.016706,103.120791
CH,China,18391,113984,Aluo,Aluo,28000,1,Y,yna,Aluo,0,4,"Ethnic Religions",0.000,0.000,23,A014,"Tibetan-Himalayan Peoples",317,C0229,"Tibeto-Burman, other",1,3,"Asia, Northeast",ASI,Asia,Y,Y,1,Y,26.23548,102.18097
CH,China,18392,113985,"Amdo, Hbrogpa","Amdo, Hbrogpa",743000,1,Y,adx,"Tibetan, Amdo",4,2,Buddhism,0.050,0.050,23,A014,"Tibetan-Himalayan Peoples",304,C0216,Tibetan,1,3,"Asia, Northeast",ASI,Asia,Y,Y,15,Y,34.479699358339,100.24247112794
CH,China,18393,113986,"Amdo, Rongba","Amdo, Rongba",162000,1,Y,adx,"Tibetan, Amdo",4,2,Buddhism,0.010,0.010,23,A014,"Tibetan-Himalayan Peoples",304,C0216,Tibetan,1,3,"Asia, Northeast",ASI,Asia,Y,Y,3,Y,34.524750317192,100.49083217385
CH,China,18394,113987,"Amdo, Rongmahbrogpa","Amdo, Rongmahbrogpa",187000,1,Y,adx,"Tibetan, Amdo",4,2,Buddhism,0.050,0.050,23,A014,"Tibetan-Himalayan Peoples",304,C0216,Tibetan,1,3,"Asia, Northeast",ASI,Asia,Y,Y,4,Y,34.523345103952,100.4886813641
CH,China,18395,113988,"Amdo, Rtahu","Amdo, Rtahu",100000,1,Y,adx,"Tibetan, Amdo",4,2,Buddhism,0.000,0.000,23,A014,"Tibetan-Himalayan Peoples",304,C0216,Tibetan,1,3,"Asia, Northeast",ASI,Asia,Y,Y,2,Y,34.520750465386,100.4864585404
CH,China,10295,100294,Ami,Ami,2000,1,Y,ami,Amis,5,4,"Ethnic Religions",0.000,0.000,11,A002,"East Asian Peoples",298,C0210,"Taiwan Indigenous",2,3,"Asia, Northeast",ASI,Asia,Y,Y,1,Y,23.981006336173,117.02325059474
CH,China,19373,114915,Angku,Angku,8100,1,Y,kkn,"Kon Keu",1,2,Buddhism,0.000,0.000,20,A011,"Southeast Asian Peoples",239,C0147,Mon-Khmer,1,3,"Asia, Northeast",ASI,Asia,Y,Y,1,Y,21.872035494143,100.78153358021
CH,China,10326,100354,Anglo-Australian,Anglo-Australian,79000,5,N,eng,English,5,1,Christianity,81.000,35.000,12,A003,"Eurasian Peoples",110,C0012,Anglo-Celt,25,3,"Asia, Northeast",ASI,Asia,Y,N,,N,22.321188814806,114.18399041058
CH,China,18396,113990,Ani,Ani,10000,1,Y,ypn,"Phowa, Ani",1,4,"Ethnic Religions",0.000,0.000,23,A014,"Tibetan-Himalayan Peoples",317,C0229,"Tibeto-Burman, other",1,3,"Asia, Northeast",ASI,Asia,Y,Y,1,Y,24.5198,103.72997
CH,China,18397,113991,"Ao Biao","Ao Biao",17000,1,Y,bje,"Biao-Jiao Mien",0,4,"Ethnic Religions",0.400,0.400,20,A011,"Southeast Asian Peoples",319,C0232,Yao-Mien,1,3,"Asia, Northeast",ASI,Asia,Y,Y,1,N,25.539835774356,111.35343926455
CH,China,18398,113992,Aoka,Aoka,299000,1,Y,hsn,"Chinese, Xiang",3,4,"Ethnic Religions",1.000,0.700,11,A002,"East Asian Peoples",161,C0065,Chinese,1,3,"Asia, Northeast",ASI,Asia,Y,Y,6,N,26.335633999909,110.30064700016
CH,China,18400,113994,Apu,Apu,3300,1,Y,nos,"Nisu, Eastern",1,4,"Ethnic Religions",0.000,0.000,23,A014,"Tibetan-Himalayan Peoples",317,C0229,"Tibeto-Burman, other",1,3,"Asia, Northeast",ASI,Asia,Y,Y,1,Y,22.780106854648,103.49539890304
CH,China,18401,113995,Asahei,Asahei,11000,1,Y,ysn,Sani,0,4,"Ethnic Religions",0.000,0.000,23,A014,"Tibetan-Himalayan Peoples",317,C0229,"Tibeto-Burman, other",1,3,"Asia, Northeast",ASI,Asia,Y,Y,1,Y,23.72162395708,103.58471277787
CH,China,18402,114832,Ati,Ati,17000,1,Y,ysn,Sani,0,4,"Ethnic Religions",0.300,0.200,11,A002,"East Asian Peoples",238,C0146,Mongolian,1,3,"Asia, Northeast",ASI,Asia,Y,Y,1,N,24.285325864752,103.76199352408
CH,China,18403,113997,"Awu, Northern","Awu, Northern",4600,1,Y,yiu,Awu,1,4,"Ethnic Religions",0.021,0.021,23,A014,"Tibetan-Himalayan Peoples",317,C0229,"Tibeto-Burman, other",1,3,"Asia, Northeast",ASI,Asia,Y,Y,1,Y,26.806674066355,100.99461039505
CH,China,18404,113998,"Awu, Southeastern","Awu, Southeastern",32000,4,N,yiu,Awu,1,4,"Ethnic Religions",3.000,2.409,23,A014,"Tibetan-Himalayan Peoples",317,C0229,"Tibeto-Burman, other",1,3,"Asia, Northeast",ASI,Asia,Y,Y,,N,24.34308,103.40744
CH,China,18405,113999,Axi,Axi,118000,1,Y,yix,Axi,0,4,"Ethnic Religions",3.000,0.080,23,A014,"Tibetan-Himalayan Peoples",317,C0229,"Tibeto-Burman, other",1,3,"Asia, Northeast",ASI,Asia,Y,Y,2,N,24.60087000005,103.71347000034
CH,China,10519,107509,Anong,"Ayi, Anong",8200,5,N,nun,Anong,5,1,Christianity,59.000,50.000,23,A014,"Tibetan-Himalayan Peoples",317,C0229,"Tibeto-Burman, other",2,3,"Asia, Northeast",ASI,Asia,Y,N,,N,27.12021,98.86459
CH,China,18406,114000,Ayizi,Ayizi,2100,1,Y,cmn,"Chinese, Mandarin",5,4,"Ethnic Religions",0.500,0.500,23,A014,"Tibetan-Himalayan Peoples",317,C0229,"Tibeto-Burman, other",1,3,"Asia, Northeast",ASI,Asia,Y,Y,1,N,24.9611,103.42501
CH,China,20598,116831,Azha,Azha,58000,1,Y,aza,Azha,3,4,"Ethnic Religions",0.080,0.080,23,A014,"Tibetan-Himalayan Peoples",317,C0229,"Tibeto-Burman, other",1,3,"Asia, Northeast",ASI,Asia,Y,Y,1,Y,23.540322,104.317256
CH,China,18407,114001,Azhe,Azhe,64000,1,Y,yiz,Azhe,1,4,"Ethnic Religions",1.000,0.070,23,A014,"Tibetan-Himalayan Peoples",317,C0229,"Tibeto-Burman, other",1,3,"Asia, Northeast",ASI,Asia,Y,Y,1,N,24.15562,103.43611
CH,China,18408,114002,Azong,Azong,1300,1,Y,nos,"Nisu, Eastern",1,4,"Ethnic Religions",0.000,0.000,23,A014,"Tibetan-Himalayan Peoples",317,C0229,"Tibeto-Burman, other",1,3,"Asia, Northeast",ASI,Asia,Y,Y,1,Y,22.73544991678,102.11475524716
CH,China,10568,100766,"Baheng, Liping","Baheng, Lipeng",6700,1,Y,pha,Pa-Hng,0,4,"Ethnic Religions",0.000,0.000,20,A011,"Southeast Asian Peoples",319,C0232,Yao-Mien,1,3,"Asia, Northeast",ASI,Asia,Y,Y,1,Y,26.196362583966,109.09240175274
CH,China,18410,114004,"Bai Yi","Bai Yi",28000,1,Y,xxx,"Language unknown",0,4,"Ethnic Religions",0.000,0.000,23,A014,"Tibetan-Himalayan Peoples",317,C0229,"Tibeto-Burman, other",1,3,"Asia, Northeast",ASI,Asia,Y,Y,1,Y,26.259626578604,101.90635620468
CH,China,21528,100776,"Bai, Central","Bai, Central",869000,1,Y,bca,"Bai, Central",3,4,"Ethnic Religions",0.082,0.082,23,A014,"Tibetan-Himalayan Peoples",317,C0229,"Tibeto-Burman, other",1,3,"Asia, Northeast",ASI,Asia,Y,Y,17,Y,26.115022,99.952517
CH,China,12964,105606,"Bai, Lama","Bai, Lama",79000,2,N,lay,"Bai, Lama",3,4,"Ethnic Religions",10.000,1.000,23,A014,"Tibetan-Himalayan Peoples",317,C0229,"Tibeto-Burman, other",1,3,"Asia, Northeast",ASI,Asia,Y,Y,,N,26.355355618867,98.887429042916
CH,China,20599,116832,"Bai, Panyi","Bai, Panyi",35000,4,N,bfc,"Bai, Panyi",0,4,"Ethnic Religions",8.000,8.000,23,A014,"Tibetan-Himalayan Peoples",317,C0229,"Tibeto-Burman, other",1,3,"Asia, Northeast",ASI,Asia,Y,Y,,N,25.860609,98.861417
CH,China,10573,116833,"Bai, Southern","Bai, Southern",671000,1,Y,bfs,"Bai, Southern",3,2,Buddhism,0.128,0.128,23,A014,"Tibetan-Himalayan Peoples",317,C0229,"Tibeto-Burman, other",1,3,"Asia, Northeast",ASI,Asia,Y,Y,13,N,25.56373,100.41767
CH,China,18409,114003,Baihong,Baihong,249000,4,N,how,Honi,3,4,"Ethnic Religions",2.800,2.700,23,A014,"Tibetan-Himalayan Peoples",185,C0089,Hani,1,3,"Asia, Northeast",ASI,Asia,Y,Y,,N,23.20739,101.8863
CH,China,10576,100783,Baima,Baima,18000,1,Y,bqh,Baima,1,4,"Ethnic Religions",2.200,2.000,23,A014,"Tibetan-Himalayan Peoples",317,C0229,"Tibeto-Burman, other",1,3,"Asia, Northeast",ASI,Asia,Y,Y,1,N,33.11403,103.95904
CH,China,18411,114005,"Ban Yao","Ban Yao",36000,1,Y,ium,"Iu Mien",5,4,"Ethnic Religions",0.000,0.000,20,A011,"Southeast Asian Peoples",319,C0232,Yao-Mien,1,3,"Asia, Northeast",ASI,Asia,Y,Y,1,Y,24.43389722297,110.32181742524
CH,China,10669,101024,Baonuo,Baonuo,33000,1,Y,bwx,"Bunu, Bu-Nao",0,4,"Ethnic Religions",0.400,0.300,20,A011,"Southeast Asian Peoples",319,C0232,Yao-Mien,1,3,"Asia, Northeast",ASI,Asia,Y,Y,1,N,25.33671653474,107.6708225707
CH,China,18412,114006,Bei,Bei,23000,1,Y,xxx,"Language unknown",0,4,"Ethnic Religions",0.050,0.043,23,A014,"Tibetan-Himalayan Peoples",317,C0229,"Tibeto-Burman, other",1,3,"Asia, Northeast",ASI,Asia,Y,Y,1,Y,26.11294,99.7117
CH,China,10765,101210,Beidalao,Beidalao,25000,1,Y,pha,Pa-Hng,0,4,"Ethnic Religions",0.010,0.010,20,A011,"Southeast Asian Peoples",319,C0232,Yao-Mien,1,3,"Asia, Northeast",ASI,Asia,Y,Y,1,Y,25.306945242829,109.29335797179
CH,China,18413,114007,Beidongnuo,Beidongnuo,500,1,Y,hea,"Miao, Northern Qiandong",4,4,"Ethnic Religions",0.000,0.000,20,A011,"Southeast Asian Peoples",230,C0138,"Miao / Hmong",1,3,"Asia, Northeast",ASI,Asia,Y,Y,1,Y,25.39253770685,107.98714254569
CH,China,19610,101217,Bela,Bela,4900,5,N,bxd,Pela,1,4,"Ethnic Religions",14.000,13.513,23,A014,"Tibetan-Himalayan Peoples",317,C0229,"Tibeto-Burman, other",1,3,"Asia, Northeast",ASI,Asia,Y,Y,,N,24.20945,97.91089
CH,China,18414,114008,Ben,Ben,1400,1,Y,wbm,"Wa, Vo",5,4,"Ethnic Religions",0.100,0.000,20,A011,"Southeast Asian Peoples",239,C0147,Mon-Khmer,1,3,"Asia, Northeast",ASI,Asia,Y,Y,1,Y,23.766280894947,99.133904659572
CH,China,20600,116837,Biao,Biao,133000,1,Y,byk,Biao,0,4,"Ethnic Religions",1.500,1.000,20,A011,"Southeast Asian Peoples",295,C0207,Tai,1,3,"Asia, Northeast",ASI,Asia,Y,Y,3,N,23.923211,112.17716
CH,China,10828,101407,"Biao Mien","Biao Mien",34000,1,Y,bmt,"Biao Mon",1,4,"Ethnic Religions",0.090,0.077,20,A011,"Southeast Asian Peoples",319,C0232,Yao-Mien,1,3,"Asia, Northeast",ASI,Asia,Y,Y,1,Y,24.66089,113.42774
CH,China,10829,101409,"Biao Mien, Shikou","Biao Mien, Shikou",13000,1,Y,bje,"Biao-Jiao Mien",0,4,"Ethnic Religions",0.000,0.000,20,A011,"Southeast Asian Peoples",319,C0232,Yao-Mien,1,3,"Asia, Northeast",ASI,Asia,Y,Y,1,Y,25.538351319534,111.35087532022
CH,China,18415,114009,"Biao-Jiao Mien","Biao-Jiao Mien",68000,1,Y,bje,"Biao-Jiao Mien",0,4,"Ethnic Religions",0.100,0.100,20,A011,"Southeast Asian Peoples",319,C0232,Yao-Mien,1,3,"Asia, Northeast",ASI,Asia,Y,Y,1,Y,25.532526401753,111.34953617917
CH,China,10882,101500,Bit,Bit,900,1,Y,bgk,Bit,0,4,"Ethnic Religions",0.000,0.000,20,A011,"Southeast Asian Peoples",239,C0147,Mon-Khmer,2,3,"Asia, Northeast",ASI,Asia,Y,Y,1,Y,21.6125,101.41866
CH,China,10886,101505,Biyo,Biyo,157000,4,N,byo,Biyo,1,4,"Ethnic Religions",9.000,9.000,23,A014,"Tibetan-Himalayan Peoples",185,C0089,Hani,1,3,"Asia, Northeast",ASI,Asia,Y,Y,,N,22.514751004814,101.65973907399
CH,China,18416,114011,Bogol,Bogol,1400,1,Y,dta,Daur,3,4,"Ethnic Religions",0.000,0.000,11,A002,"East Asian Peoples",238,C0146,Mongolian,1,3,"Asia, Northeast",ASI,Asia,Y,Y,1,Y,48.940221879436,124.04555089056
CH,China,18417,116943,Bokha,Bokha,12000,1,Y,ybk,Bokha,1,4,"Ethnic Religions",0.100,0.054,23,A014,"Tibetan-Himalayan Peoples",317,C0229,"Tibeto-Burman, other",1,3,"Asia, Northeast",ASI,Asia,Y,Y,1,Y,23.18815,103.65782
CH,China,18418,114013,Bolozi,Bolozi,2800,1,Y,qxs,"Qiang, Southern",3,4,"Ethnic Religions",0.000,0.000,23,A014,"Tibetan-Himalayan Peoples",304,C0216,Tibetan,1,3,"Asia, Northeast",ASI,Asia,Y,Y,1,Y,32.891181817287,102.81438060258
CH,China,18419,114014,Bonan,Bonan,12000,1,Y,peh,Bonan,1,6,Islam,0.000,0.000,11,A002,"East Asian Peoples",162,C0066,"Hui, Dungan",1,3,"Asia, Northeast",ASI,Asia,Y,Y,1,Y,35.700498593835,102.92148747687
CH,China,18420,114015,"Bonan, Tongren","Bonan, Tongren",7300,1,Y,peh,Bonan,1,2,Buddhism,0.000,0.000,23,A014,"Tibetan-Himalayan Peoples",304,C0216,Tibetan,1,3,"Asia, Northeast",ASI,Asia,Y,Y,1,Y,35.093588716146,101.89591880791
CH,China,18421,114016,Bouyei,Bouyei,3293000,1,Y,pcc,Bouyei,3,4,"Ethnic Religions",0.700,0.168,20,A011,"Southeast Asian Peoples",150,C0054,Bouyei,3,3,"Asia, Northeast",ASI,Asia,Y,Y,66,N,25.050209000145,105.73666899958
CH,China,11140,102927,British,British,40000,4,N,eng,English,5,1,Christianity,70.000,7.000,12,A003,"Eurasian Peoples",110,C0012,Anglo-Celt,126,3,"Asia, Northeast",ASI,Asia,Y,N,,N,22.318667683478,114.17504197512
CH,China,18422,114017,Budo,Budo,14000,5,N,byo,Biyo,1,4,"Ethnic Religions",19.000,18.903,23,A014,"Tibetan-Himalayan Peoples",185,C0089,Hani,1,3,"Asia, Northeast",ASI,Asia,Y,Y,,N,22.513382179169,101.65733304737
CH,China,10984,101701,Bugan,Bugan,3000,1,Y,bbh,Bugan,1,4,"Ethnic Religions",0.000,0.000,20,A011,"Southeast Asian Peoples",239,C0147,Mon-Khmer,1,3,"Asia, Northeast",ASI,Asia,Y,Y,1,Y,23.61699,104.96042
CH,China,12665,104959,Bulang,Bulang,105000,1,Y,blr,Blang,4,2,Buddhism,0.060,0.056,20,A011,"Southeast Asian Peoples",239,C0147,Mon-Khmer,3,3,"Asia, Northeast",ASI,Asia,Y,Y,2,Y,24.485979999777,99.172030000384
CH,China,20553,116844,Bumang,Bumang,300,1,Y,bvp,Bumang,1,4,"Ethnic Religions",0.000,0.000,20,A011,"Southeast Asian Peoples",239,C0147,Mon-Khmer,1,3,"Asia, Northeast",ASI,Asia,Y,Y,1,Y,24.570972,99.134654
CH,China,18423,114018,Bunan,Bunan,2200,1,Y,bfu,Gahri,3,2,Buddhism,0.200,0.200,23,A014,"Tibetan-Himalayan Peoples",304,C0216,Tibetan,1,3,"Asia, Northeast",ASI,Asia,Y,Y,1,N,31.79606999993,78.903440000156
CH,China,18424,114019,Bunu,Bunu,428000,1,Y,bwx,"Bunu, Bu-Nao",0,4,"Ethnic Religions",0.000,0.000,20,A011,"Southeast Asian Peoples",319,C0232,Yao-Mien,1,3,"Asia, Northeast",ASI,Asia,Y,Y,9,Y,24.378610000051,107.7917919997
CH,China,18425,114020,Bunun,Bunun,1500,1,Y,bnn,Bunun,5,4,"Ethnic Religions",0.300,0.300,11,A002,"East Asian Peoples",298,C0210,"Taiwan Indigenous",2,3,"Asia, Northeast",ASI,Asia,Y,N,1,N,24.081990324694,117.48659771831
CH,China,11020,101757,Bunuo,Bunuo,23000,1,Y,bwx,"Bunu, Bu-Nao",0,4,"Ethnic Religions",0.000,0.000,20,A011,"Southeast Asian Peoples",319,C0232,Yao-Mien,1,3,"Asia, Northeast",ASI,Asia,Y,Y,1,Y,23.994769744228,107.95048082813
CH,China,19319,115058,"Buriat, Chinese","Buriat, Chinese",168000,1,Y,bxu,"Buriat, China",0,2,Buddhism,1.000,0.900,11,A002,"East Asian Peoples",238,C0146,Mongolian,1,3,"Asia, Northeast",ASI,Asia,Y,Y,3,N,48.91984,118.01884
CH,China,11029,101776,Burmese,Burmese,26000,1,Y,mya,Burmese,5,2,Buddhism,0.000,0.000,23,A014,"Tibetan-Himalayan Peoples",154,C0058,Burmese,18,3,"Asia, Northeast",ASI,Asia,Y,N,1,Y,21.92983,100.697213
CH,China,11052,101816,"Buyang, Baha","Buyang, Baha",700,1,Y,yha,"Buyang, Baha",1,4,"Ethnic Religions",0.000,0.000,20,A011,"Southeast Asian Peoples",322,C0235,Zhuang,1,3,"Asia, Northeast",ASI,Asia,Y,Y,1,Y,24.27981,104.87568
CH,China,19799,115056,"Buhang, E'ma","Buyang, E'ma",700,1,Y,yzg,"Buyang, E'ma",0,4,"Ethnic Religions",0.000,0.000,20,A011,"Southeast Asian Peoples",322,C0235,Zhuang,1,3,"Asia, Northeast",ASI,Asia,Y,Y,1,Y,23.81962,105.7313
CH,China,19798,115060,"Buyang, Langnian","Buyang, Langnian",400,1,Y,yln,"Buyang, Langnian",0,4,"Ethnic Religions",0.000,0.000,20,A011,"Southeast Asian Peoples",322,C0235,Zhuang,1,3,"Asia, Northeast",ASI,Asia,Y,Y,1,Y,23.8101,105.81634
CH,China,18426,114021,Cai,Cai,34000,4,N,giq,"Gelao, Green",0,4,"Ethnic Religions",3.000,2.500,20,A011,"Southeast Asian Peoples",295,C0207,Tai,1,3,"Asia, Northeast",ASI,Asia,Y,Y,,N,26.961723184677,105.46178690844
CH,China,20601,116845,Chadong,Chadong,23000,1,Y,cdy,Chadong,1,4,"Ethnic Religions",0.000,0.000,20,A011,"Southeast Asian Peoples",295,C0207,Tai,1,3,"Asia, Northeast",ASI,Asia,Y,Y,1,Y,25.272555,110.284355
CH,China,18427,114023,Changpao,Changpao,6800,1,Y,bwx,"Bunu, Bu-Nao",0,4,"Ethnic Religions",0.000,0.000,20,A011,"Southeast Asian Peoples",319,C0232,Yao-Mien,1,3,"Asia, Northeast",ASI,Asia,Y,Y,1,Y,25.496417418829,107.95048082813
CH,China,18429,114025,Chesu,Chesu,3700,1,Y,ych,Chesu,0,4,"Ethnic Religions",0.500,0.500,23,A014,"Tibetan-Himalayan Peoples",317,C0229,"Tibeto-Burman, other",1,3,"Asia, Northeast",ASI,Asia,Y,Y,1,N,24.08502,101.91007
CH,China,15469,110035,Choni,Choni,170000,1,Y,cda,Choni,0,2,Buddhism,0.200,0.100,23,A014,"Tibetan-Himalayan Peoples",304,C0216,Tibetan,1,3,"Asia, Northeast",ASI,Asia,Y,Y,3,N,34.415318209668,103.04878430375
CH,China,11373,102197,Chrame,Chrame,50000,1,Y,pmi,"Pumi, Northern",0,2,Buddhism,0.000,0.000,23,A014,"Tibetan-Himalayan Peoples",304,C0216,Tibetan,1,3,"Asia, Northeast",ASI,Asia,Y,Y,1,Y,28.662619999613,101.30511000003
CH,China,18430,114027,Chuanlan,Chuanlan,395000,4,N,cmn,"Chinese, Mandarin",5,2,Buddhism,7.500,6.800,23,A014,"Tibetan-Himalayan Peoples",317,C0229,"Tibeto-Burman, other",1,3,"Asia, Northeast",ASI,Asia,Y,Y,,N,26.452995687001,105.90213644634
CH,China,18431,114028,Chuanqing,Chuanqing,1003000,4,N,cmn,"Chinese, Mandarin",5,2,Buddhism,7.500,6.800,11,A002,"East Asian Peoples",161,C0065,Chinese,1,3,"Asia, Northeast",ASI,Asia,Y,Y,,N,26.753913000285,105.79423899963
CH,China,11446,102331,Cun,Cun,97000,4,N,cuq,Cun,0,4,"Ethnic Religions",4.120,4.120,20,A011,"Southeast Asian Peoples",297,C0209,Kadai,1,3,"Asia, Northeast",ASI,Asia,Y,Y,,N,19.24128,108.76182
CH,China,18432,114029,Daizhan,Daizhan,14000,1,Y,cmn,"Chinese, Mandarin",5,4,"Ethnic Religions",0.000,0.000,23,A014,"Tibetan-Himalayan Peoples",317,C0229,"Tibeto-Burman, other",1,3,"Asia, Northeast",ASI,Asia,Y,Y,1,Y,23.702523483672,103.49822892922
CH,China,18433,114030,Daur,Daur,197000,1,Y,dta,Daur,3,4,"Ethnic Religions",1.500,1.200,11,A002,"East Asian Peoples",238,C0146,Mongolian,2,3,"Asia, Northeast",ASI,Asia,Y,Y,4,N,49.135353999887,123.87012299978
CH,China,18434,114031,"Daur, Western","Daur, Western",7500,1,Y,dta,Daur,3,4,"Ethnic Religions",0.000,0.000,11,A002,"East Asian Peoples",238,C0146,Mongolian,1,3,"Asia, Northeast",ASI,Asia,Y,Y,1,Y,47.025483656845,83.140764151744
CH,China,14178,109011,"Palaung, Pale","De'ang, Pale",11000,1,Y,pce,"Palaung, Ruching",5,2,Buddhism,0.120,0.120,20,A011,"Southeast Asian Peoples",239,C0147,Mon-Khmer,3,3,"Asia, Northeast",ASI,Asia,Y,N,1,N,24.31942,98.52384
CH,China,18435,114033,"De'ang, Rumai","De'ang, Rumai",6200,1,Y,rbb,"Palaung, Rumai",3,2,Buddhism,0.666,0.666,20,A011,"Southeast Asian Peoples",239,C0147,Mon-Khmer,1,3,"Asia, Northeast",ASI,Asia,Y,Y,1,N,24.15649,97.96321
CH,China,11921,103423,"Palaung, Shwe","De'ang, Shwe",7900,1,Y,pll,"Palaung, Shwe",0,2,Buddhism,0.000,0.000,20,A011,"Southeast Asian Peoples",239,C0147,Mon-Khmer,2,3,"Asia, Northeast",ASI,Asia,Y,N,1,Y,24.34836,98.65813
CH,China,19007,114916,Deaf,Deaf,7125000,2,N,csl,"Chinese Sign Language",1,7,Non-Religious,7.920,,26,A017,Deaf,328,C0252,Deaf,216,3,"Asia, Northeast",ASI,Asia,Y,Y,,N,30.90631,121.56875
CH,China,18436,114035,"Deng, Darang","Deng, Darang",11000,1,Y,mhu,Digaro-Mishmi,3,4,"Ethnic Religions",0.150,0.121,23,A014,"Tibetan-Himalayan Peoples",317,C0229,"Tibeto-Burman, other",1,3,"Asia, Northeast",ASI,Asia,Y,Y,1,N,28.49399,96.88122
CH,China,18437,114036,"Deng, Geman","Deng, Geman",14000,1,Y,mxj,Miju-Mishmi,3,4,"Ethnic Religions",0.009,0.000,21,A012,"South Asian Peoples",475,A012,"South Asia Tribal - other",2,3,"Asia, Northeast",ASI,Asia,Y,Y,1,Y,28.46846,97.05071
CH,China,18438,114037,Depo,Depo,8000,5,N,xxx,"Language unknown",0,4,"Ethnic Religions",14.000,14.000,23,A014,"Tibetan-Himalayan Peoples",317,C0229,"Tibeto-Burman, other",1,3,"Asia, Northeast",ASI,Asia,Y,Y,,N,26.296433338828,102.03588636656
CH,China,15628,110266,Derung,Derung,15000,5,N,duu,Drung,0,4,"Ethnic Religions",25.000,21.323,23,A014,"Tibetan-Himalayan Peoples",317,C0229,"Tibeto-Burman, other",2,3,"Asia, Northeast",ASI,Asia,Y,Y,,N,27.97968,98.44339
CH,China,18439,114039,Dianbao,Dianbao,14000,1,Y,zyg,"Zhuang, Yang",0,4,"Ethnic Religions",0.000,0.000,20,A011,"Southeast Asian Peoples",322,C0235,Zhuang,1,3,"Asia, Northeast",ASI,Asia,Y,Y,1,Y,23.512566225951,105.50001230063
CH,China,18440,114040,Diao,Diao,2800,1,Y,cmn,"Chinese, Mandarin",5,4,"Ethnic Religions",0.000,0.000,11,A002,"East Asian Peoples",161,C0065,Chinese,1,3,"Asia, Northeast",ASI,Asia,Y,Y,1,Y,26.016143561276,108.66028767374
CH,China,18441,114041,Digao,Digao,29000,1,Y,ysn,Sani,0,4,"Ethnic Religions",0.000,0.000,23,A014,"Tibetan-Himalayan Peoples",317,C0229,"Tibeto-Burman, other",1,3,"Asia, Northeast",ASI,Asia,Y,Y,1,Y,23.79060772087,103.49865543
CH,China,18442,114042,"Dong, Northern","Dong, Northern",588000,1,Y,doc,"Dong, Northern",1,4,"Ethnic Religions",0.400,0.300,20,A011,"Southeast Asian Peoples",295,C0207,Tai,1,3,"Asia, Northeast",ASI,Asia,Y,Y,12,N,26.994430000444,109.20384000032
CH,China,18443,114043,"Dong, Southern","Dong, Southern",1250000,1,Y,kmc,"Dong, Southern",4,4,"Ethnic Religions",0.500,0.400,20,A011,"Southeast Asian Peoples",295,C0207,Tai,1,3,"Asia, Northeast",ASI,Asia,Y,Y,25,N,25.980429999845,109.39495700036
CH,China,11606,102706,Dongnu,Dongnu,308000,1,Y,bwx,"Bunu, Bu-Nao",0,4,"Ethnic Religions",0.000,0.000,20,A011,"Southeast Asian Peoples",319,C0232,Yao-Mien,1,3,"Asia, Northeast",ASI,Asia,Y,Y,6,Y,24.10246,107.71137
CH,China,18444,114044,Dongxiang,Dongxiang,636000,1,Y,sce,Dongxiang,3,6,Islam,0.003,0.003,11,A002,"East Asian Peoples",162,C0066,"Hui, Dungan",1,3,"Asia, Northeast",ASI,Asia,Y,Y,13,Y,35.6309,103.55431
CH,China,18445,114045,Doupo,Doupo,800,1,Y,xxx,"Language unknown",0,4,"Ethnic Religions",1.300,1.243,23,A014,"Tibetan-Himalayan Peoples",317,C0229,"Tibeto-Burman, other",1,3,"Asia, Northeast",ASI,Asia,Y,Y,1,N,25.065341493815,102.35920956827
CH,China,18446,114046,Duoluo,Duoluo,2800,4,N,cmn,"Chinese, Mandarin",5,4,"Ethnic Religions",2.500,2.500,20,A011,"Southeast Asian Peoples",295,C0207,Tai,1,3,"Asia, Northeast",ASI,Asia,Y,Y,,N,26.7252162894,106.05927998498
CH,China,18447,114047,Duota,Duota,15000,4,N,hni,Hani,3,4,"Ethnic Religions",3.000,2.521,23,A014,"Tibetan-Himalayan Peoples",185,C0089,Hani,1,3,"Asia, Northeast",ASI,Asia,Y,Y,,N,22.989265203567,102.79444362477
CH,China,11672,102811,E,E,6900,1,Y,eee,E,1,4,"Ethnic Religions",0.000,0.000,20,A011,"Southeast Asian Peoples",295,C0207,Tai,1,3,"Asia, Northeast",ASI,Asia,Y,Y,1,Y,24.76436,109.1097
CH,China,18448,114048,Eka,Eka,3300,1,Y,lhu,Lahu,5,4,"Ethnic Religions",0.800,0.781,23,A014,"Tibetan-Himalayan Peoples",317,C0229,"Tibeto-Burman, other",1,3,"Asia, Northeast",ASI,Asia,Y,Y,1,N,23.545132538836,99.918280420405
CH,China,18449,114049,Enipu,Enipu,21000,1,Y,ycl,Lolopo,4,4,"Ethnic Religions",0.000,0.000,23,A014,"Tibetan-Himalayan Peoples",317,C0229,"Tibeto-Burman, other",1,3,"Asia, Northeast",ASI,Asia,Y,Y,1,Y,25.354342348421,100.20190951112
CH,China,18450,114050,Enu,Enu,27000,4,N,enu,Enu,1,4,"Ethnic Religions",2.900,2.870,23,A014,"Tibetan-Himalayan Peoples",185,C0089,Hani,1,3,"Asia, Northeast",ASI,Asia,Y,Y,,N,23.00742,101.77141
CH,China,18451,114051,Ergong,Ergong,63000,1,Y,ero,Horpa,0,2,Buddhism,0.005,0.005,23,A014,"Tibetan-Himalayan Peoples",304,C0216,Tibetan,1,3,"Asia, Northeast",ASI,Asia,Y,Y,1,Y,30.82012,101.82593
CH,China,18452,114052,Ersu,Ersu,44000,1,Y,ers,Ersu,0,2,Buddhism,0.000,0.000,23,A014,"Tibetan-Himalayan Peoples",317,C0229,"Tibeto-Burman, other",1,3,"Asia, Northeast",ASI,Asia,Y,Y,1,Y,28.087495408686,102.157231276
CH,China,11164,102965,Eurasian,Eurasian,733000,4,N,cmn,"Chinese, Mandarin",5,4,"Ethnic Religions",10.000,9.711,20,A011,"Southeast Asian Peoples",260,C0171,"Southeast Asian, other",13,3,"Asia, Northeast",ASI,Asia,Y,Y,,N,25.930110189806,106.27715391638
CH,China,18454,114053,Evenki,"Evenki, Solon",35000,1,Y,evn,Evenki,3,4,"Ethnic Religions",0.300,0.200,24,A015,"Turkic Peoples",107,C0009,Altaic,2,3,"Asia, Northeast",ASI,Asia,Y,Y,1,N,49.048516911926,119.76251307702
CH,China,18453,114054,Ewenki,"Ewenki, Aoluguya",400,1,Y,evn,Evenki,3,4,"Ethnic Religions",0.000,0.000,24,A015,"Turkic Peoples",107,C0009,Altaic,1,3,"Asia, Northeast",ASI,Asia,Y,Y,1,Y,50.253651910707,120.45511143305
CH,China,18455,114055,Fuma,Fuma,1100,4,N,fom,Foma,1,4,"Ethnic Religions",2.600,2.325,20,A011,"Southeast Asian Peoples",295,C0207,Tai,1,3,"Asia, Northeast",ASI,Asia,Y,Y,,N,19.408348787866,108.84374909774
CH,China,18459,114059,"Ga Mong","Ga Mong",71000,1,Y,cqd,"Miao, Chuanqiandian Cluster",4,4,"Ethnic Religions",0.000,0.000,20,A011,"Southeast Asian Peoples",230,C0138,"Miao / Hmong",1,3,"Asia, Northeast",ASI,Asia,Y,Y,1,Y,26.606039096827,107.94645829192
CH,China,18456,114056,Gaiji,Gaiji,40000,1,Y,cmn,"Chinese, Mandarin",5,4,"Ethnic Religions",0.000,0.000,23,A014,"Tibetan-Himalayan Peoples",317,C0229,"Tibeto-Burman, other",1,3,"Asia, Northeast",ASI,Asia,Y,Y,1,Y,24.584957961441,100.18882905542
CH,China,18457,114057,"Gaisu, Southern","Gaisu, Southern",49000,1,Y,cmn,"Chinese, Mandarin",5,4,"Ethnic Religions",0.300,0.000,23,A014,"Tibetan-Himalayan Peoples",317,C0229,"Tibeto-Burman, other",1,3,"Asia, Northeast",ASI,Asia,Y,Y,1,N,23.555037162835,103.35611236859
CH,China,18458,114058,"Gaisu, Western","Gaisu, Western",1300,1,Y,cmn,"Chinese, Mandarin",5,4,"Ethnic Religions",0.000,0.000,23,A014,"Tibetan-Himalayan Peoples",317,C0229,"Tibeto-Burman, other",1,3,"Asia, Northeast",ASI,Asia,Y,Y,1,Y,24.369006826104,99.441305895051
CH,China,19617,115102,Gao,Gao,3600,4,N,cmn,"Chinese, Mandarin",5,4,"Ethnic Religions",7.500,6.800,20,A011,"Southeast Asian Peoples",230,C0138,"Miao / Hmong",1,3,"Asia, Northeast",ASI,Asia,Y,Y,,N,28.529564,107.884481
CH,China,18460,114061,Ge,Ge,136000,1,Y,hmj,Ge,3,4,"Ethnic Religions",0.120,0.097,20,A011,"Southeast Asian Peoples",230,C0138,"Miao / Hmong",1,3,"Asia, Northeast",ASI,Asia,Y,Y,3,N,26.52671,107.81977
CH,China,11857,103287,Gelao,Gelao,582000,4,N,cmn,"Chinese, Mandarin",5,4,"Ethnic Religions",4.200,2.600,20,A011,"Southeast Asian Peoples",230,C0138,"Miao / Hmong",1,3,"Asia, Northeast",ASI,Asia,Y,Y,,N,27.699669999671,106.33346499991
CH,China,18461,114063,"Gepo, Eastern","Gepo, Eastern",83000,1,Y,ygp,Gepo,3,4,"Ethnic Religions",0.600,0.600,23,A014,"Tibetan-Himalayan Peoples",317,C0229,"Tibeto-Burman, other",1,3,"Asia, Northeast",ASI,Asia,Y,Y,2,N,25.709011304928,103.31181469999
CH,China,18462,114064,"Gepo, Western","Gepo, Western",8500,1,Y,ygp,Gepo,3,4,"Ethnic Religions",0.000,0.000,23,A014,"Tibetan-Himalayan Peoples",317,C0229,"Tibeto-Burman, other",1,3,"Asia, Northeast",ASI,Asia,Y,Y,1,Y,26.506369341572,100.37709414698
CH,China,18463,114065,Gese,Gese,16000,1,Y,yig,"Nasu, Wusa",4,4,"Ethnic Religions",0.000,0.000,23,A014,"Tibetan-Himalayan Peoples",317,C0229,"Tibeto-Burman, other",1,3,"Asia, Northeast",ASI,Asia,Y,Y,1,Y,24.955950936886,101.94966138686
CH,China,18464,114066,Gesu,Gesu,16000,1,Y,cmn,"Chinese, Mandarin",5,4,"Ethnic Religions",0.000,0.000,23,A014,"Tibetan-Himalayan Peoples",317,C0229,"Tibeto-Burman, other",1,3,"Asia, Northeast",ASI,Asia,Y,Y,1,Y,25.603804341997,101.88321488396
CH,China,11877,103323,Gha-Mu,Gha-Mu,143000,5,N,sfm,"Miao, Small Flowery",0,1,Christianity,80.000,50.000,20,A011,"Southeast Asian Peoples",230,C0138,"Miao / Hmong",1,3,"Asia, Northeast",ASI,Asia,Y,Y,,N,26.75554372926,105.2830609591
CH,China,18465,114068,"Ghao-Xong, Eastern","Ghao-Xong, Eastern",136000,1,Y,muq,"Miao, Eastern Xiangxi",3,4,"Ethnic Religions",3.500,0.968,20,A011,"Southeast Asian Peoples",230,C0138,"Miao / Hmong",1,3,"Asia, Northeast",ASI,Asia,Y,Y,3,N,28.51339,109.59157
CH,China,18466,108339,"Ghao-Xong, Western","Ghao-Xong, Western",1395000,1,Y,mmr,"Miao, Western Xiangxi",1,4,"Ethnic Religions",0.600,0.378,20,A011,"Southeast Asian Peoples",230,C0138,"Miao / Hmong",1,3,"Asia, Northeast",ASI,Asia,Y,Y,28,N,23.02309,105.82539
CH,China,18467,114071,Golog,Golog,167000,1,Y,adx,"Tibetan, Amdo",4,2,Buddhism,0.020,0.010,23,A014,"Tibetan-Himalayan Peoples",304,C0216,Tibetan,1,3,"Asia, Northeast",ASI,Asia,Y,Y,3,Y,33.473170268793,100.61884946413
CH,China,18468,114072,Gouzou,Gouzou,5300,4,N,yig,"Nasu, Wusa",4,4,"Ethnic Religions",5.000,4.878,23,A014,"Tibetan-Himalayan Peoples",317,C0229,"Tibeto-Burman, other",1,3,"Asia, Northeast",ASI,Asia,Y,Y,,N,27.015792533199,104.24206574424
CH,China,11946,103488,Groma,Groma,19000,1,Y,gro,Groma,0,2,Buddhism,0.000,0.000,21,A012,"South Asian Peoples",475,A012,"South Asia Tribal - other",1,3,"Asia, Northeast",ASI,Asia,Y,Y,1,Y,27.5906,88.90435
CH,China,18469,114073,Guaigun,Guaigun,500,4,N,xxx,"Language unknown",0,4,"Ethnic Religions",4.000,3.703,23,A014,"Tibetan-Himalayan Peoples",317,C0229,"Tibeto-Burman, other",1,3,"Asia, Northeast",ASI,Asia,Y,Y,,N,31.09692,105.093079
CH,China,11981,103542,Guiqiong,Guiqiong,13000,1,Y,gqi,Guiqiong,1,2,Buddhism,0.000,0.000,23,A014,"Tibetan-Himalayan Peoples",304,C0216,Tibetan,1,3,"Asia, Northeast",ASI,Asia,Y,Y,1,Y,30.47684,102.1235
CH,China,18470,114074,Guopu,Guopu,112000,5,N,yig,"Nasu, Wusa",4,4,"Ethnic Religions",20.000,18.000,23,A014,"Tibetan-Himalayan Peoples",317,C0229,"Tibeto-Burman, other",1,3,"Asia, Northeast",ASI,Asia,Y,Y,,N,27.21513204191,104.22545411761
CH,China,18471,114075,Hagei,Hagei,3100,1,Y,cmn,"Chinese, Mandarin",5,4,"Ethnic Religions",0.000,0.000,20,A011,"Southeast Asian Peoples",295,C0207,Tai,1,3,"Asia, Northeast",ASI,Asia,Y,Y,1,Y,27.552901765904,106.91653749421
CH,China,18472,114077,"Hakka, Hainan Island","Hakka, Hainan Island",2400,1,Y,hak,"Chinese, Hakka",5,4,"Ethnic Religions",0.000,0.000,11,A002,"East Asian Peoples",161,C0065,Chinese,1,3,"Asia, Northeast",ASI,Asia,Y,Y,1,Y,19.324576599331,109.50160716474
CH,China,12057,103701,"Han Chinese, Cantonese","Han Chinese, Cantonese",67823000,4,N,yue,"Chinese, Yue",5,7,Non-Religious,9.600,7.900,11,A002,"East Asian Peoples",161,C0065,Chinese,36,3,"Asia, Northeast",ASI,Asia,Y,Y,,N,22.311551182398,111.13385214918
CH,China,18473,114079,"Han Chinese, Dan","Han Chinese, Dan",4996000,4,N,yue,"Chinese, Yue",5,4,"Ethnic Religions",8.800,6.700,11,A002,"East Asian Peoples",161,C0065,Chinese,1,3,"Asia, Northeast",ASI,Asia,Y,Y,,N,22.307146989833,111.13217988219
CH,China,18474,114080,"Han Chinese, Gan","Han Chinese, Gan",22162000,4,N,gan,"Chinese, Gan",3,4,"Ethnic Religions",8.500,6.500,11,A002,"East Asian Peoples",161,C0065,Chinese,1,3,"Asia, Northeast",ASI,Asia,Y,Y,,N,28.2758,115.06854
CH,China,12053,103690,"Han Chinese, Hainanese","Han Chinese, Hainanese",5750000,4,N,nan,"Chinese, Min Nan",5,7,Non-Religious,9.000,8.900,11,A002,"East Asian Peoples",161,C0065,Chinese,5,3,"Asia, Northeast",ASI,Asia,Y,Y,,N,24.544992831271,117.04751424983
CH,China,12054,103691,"Han Chinese, Hakka","Han Chinese, Hakka",36339000,4,N,hak,"Chinese, Hakka",5,4,"Ethnic Religions",9.100,7.800,11,A002,"East Asian Peoples",161,C0065,Chinese,23,3,"Asia, Northeast",ASI,Asia,Y,Y,,N,24.330801999613,116.11546500011
CH,China,18475,114081,"Han Chinese, Hui'an","Han Chinese, Hui'an",181000,4,N,cdo,"Chinese, Min Dong",5,4,"Ethnic Religions",5.000,4.200,11,A002,"East Asian Peoples",161,C0065,Chinese,1,3,"Asia, Northeast",ASI,Asia,Y,Y,,N,26.423105028935,119.05944964608
CH,China,18476,114082,"Han Chinese, Huizhou","Han Chinese, Huizhou",5342000,4,N,czh,"Chinese, Huizhou",0,4,"Ethnic Religions",9.000,7.000,11,A002,"East Asian Peoples",161,C0065,Chinese,1,3,"Asia, Northeast",ASI,Asia,Y,Y,,N,29.62426,118.15669
CH,China,18477,114083,"Han Chinese, Jin","Han Chinese, Jin",47019000,4,N,cjy,"Chinese, Jinyu",0,7,Non-Religious,9.500,7.600,11,A002,"East Asian Peoples",161,C0065,Chinese,1,3,"Asia, Northeast",ASI,Asia,Y,Y,,N,38.78812,111.53346
CH,China,12051,103686,"Han Chinese, Mandarin","Han Chinese, Mandarin",918811000,4,N,cmn,"Chinese, Mandarin",5,7,Non-Religious,9.900,8.300,11,A002,"East Asian Peoples",161,C0065,Chinese,53,3,"Asia, Northeast",ASI,Asia,Y,Y,,N,25.935635689516,106.27942605599
CH,China,11343,102138,"Han Chinese, Min Bei","Han Chinese, Min Bei",8270000,4,N,mnp,"Chinese, Min Bei",4,7,Non-Religious,10.000,8.800,11,A002,"East Asian Peoples",161,C0065,Chinese,6,3,"Asia, Northeast",ASI,Asia,Y,Y,,N,27.21396,118.10553
CH,China,18478,114085,"Han Chinese, Min Dong","Han Chinese, Min Dong",10231000,4,N,cdo,"Chinese, Min Dong",5,7,Non-Religious,10.000,9.100,11,A002,"East Asian Peoples",161,C0065,Chinese,7,3,"Asia, Northeast",ASI,Asia,Y,Y,,N,26.425971980698,119.05891602262
CH,China,11344,102140,"Han Chinese, Min Nan","Han Chinese, Min Nan",22641000,4,N,nan,"Chinese, Min Nan",5,4,"Ethnic Religions",10.000,8.800,11,A002,"East Asian Peoples",161,C0065,Chinese,18,3,"Asia, Northeast",ASI,Asia,Y,Y,,N,24.547246021147,117.04228977926
CH,China,18479,114087,"Han Chinese, Min Zhong","Han Chinese, Min Zhong",3600000,4,N,czo,"Chinese, Min Zhong",0,7,Non-Religious,7.000,5.800,11,A002,"East Asian Peoples",161,C0065,Chinese,1,3,"Asia, Northeast",ASI,Asia,Y,Y,,N,26.07554,117.35038
CH,China,18481,114089,"Han Chinese, Putian","Han Chinese, Putian",3062000,4,N,cpx,"Chinese, Pu-Xian",5,7,Non-Religious,8.000,5.500,11,A002,"East Asian Peoples",161,C0065,Chinese,3,3,"Asia, Northeast",ASI,Asia,Y,Y,,N,25.45256,118.85947
CH,China,18482,114090,"Han Chinese, Shaojiang","Han Chinese, Shaojiang",2811000,4,N,mnp,"Chinese, Min Bei",4,7,Non-Religious,4.300,3.700,11,A002,"East Asian Peoples",161,C0065,Chinese,1,3,"Asia, Northeast",ASI,Asia,Y,Y,,N,25.936810624782,106.27969349521
CH,China,18743,114379,"Han Chinese, Shaozhou","Han Chinese, Shaozhou",669000,1,Y,nan,"Chinese, Min Nan",5,7,Non-Religious,1.200,1.050,11,A002,"East Asian Peoples",161,C0065,Chinese,2,3,"Asia, Northeast",ASI,Asia,Y,Y,13,N,24.548139709072,117.04719121063
CH,China,18483,114091,"Han Chinese, Waxiang","Han Chinese, Waxiang",372000,1,Y,wxa,Waxianghua,1,4,"Ethnic Religions",0.300,0.220,11,A002,"East Asian Peoples",161,C0065,Chinese,1,3,"Asia, Northeast",ASI,Asia,Y,Y,7,N,28.67315,110.3665
CH,China,11345,102143,"Han Chinese, Wu","Han Chinese, Wu",81559000,4,N,wuu,"Chinese, Wu",5,4,"Ethnic Religions",13.400,10.000,11,A002,"East Asian Peoples",161,C0065,Chinese,10,3,"Asia, Northeast",ASI,Asia,Y,Y,,N,29.86209,119.68246
CH,China,18484,114092,"Han Chinese, Xiang","Han Chinese, Xiang",35635000,1,Y,hsn,"Chinese, Xiang",3,4,"Ethnic Religions",3.000,2.000,11,A002,"East Asian Peoples",161,C0065,Chinese,3,3,"Asia, Northeast",ASI,Asia,Y,Y,713,N,27.66847,111.47112
CH,China,18485,114093,"Han Chinese, Xunpu","Han Chinese, Xunpu",700,4,N,nan,"Chinese, Min Nan",5,4,"Ethnic Religions",4.000,3.000,11,A002,"East Asian Peoples",161,C0065,Chinese,1,3,"Asia, Northeast",ASI,Asia,Y,Y,,N,24.542221893951,117.04861841068
CH,China,18487,114096,"Han Tai","Han Tai",57000,1,Y,khb,Lu,4,2,Buddhism,0.700,0.700,20,A011,"Southeast Asian Peoples",295,C0207,Tai,1,3,"Asia, Northeast",ASI,Asia,Y,Y,1,N,21.76142,101.02884
CH,China,12062,103712,Hani,Hani,758000,1,Y,hni,Hani,3,4,"Ethnic Religions",0.300,0.300,23,A014,"Tibetan-Himalayan Peoples",185,C0089,Hani,3,3,"Asia, Northeast",ASI,Asia,Y,Y,15,N,22.982349999953,102.78667000012
CH,China,18488,114097,Haoni,Haoni,157000,4,N,how,Honi,3,4,"Ethnic Religions",8.000,5.000,23,A014,"Tibetan-Himalayan Peoples",185,C0089,Hani,1,3,"Asia, Northeast",ASI,Asia,Y,Y,,N,23.207390000448,101.88630000014
CH,China,18489,114098,Hdzanggur,Hdzanggur,5600,1,Y,adx,"Tibetan, Amdo",4,2,Buddhism,0.000,0.000,23,A014,"Tibetan-Himalayan Peoples",304,C0216,Tibetan,1,3,"Asia, Northeast",ASI,Asia,Y,Y,1,Y,34.520876038853,100.48660036155
CH,China,13940,107064,"Nanai, Hezhen",Hezhen,4900,1,Y,gld,Nanai,3,4,"Ethnic Religions",4.000,2.000,24,A015,"Turkic Peoples",107,C0009,Altaic,2,3,"Asia, Northeast",ASI,Asia,Y,N,1,N,47.22943,134.14546
CH,China,18490,114100,Hkauri,Hkauri,40,5,N,kac,Jingpho,5,1,Christianity,80.000,50.000,23,A014,"Tibetan-Himalayan Peoples",317,C0229,"Tibeto-Burman, other",1,3,"Asia, Northeast",ASI,Asia,Y,Y,,N,24.543144439764,97.638988047161
CH,China,18491,114101,"Hmong Be","Hmong Be",1400,1,Y,hmd,"Miao, Large Flowery",5,4,"Ethnic Religions",0.000,0.000,20,A011,"Southeast Asian Peoples",230,C0138,"Miao / Hmong",1,3,"Asia, Northeast",ASI,Asia,Y,Y,1,Y,27.220790283045,105.50246384623
CH,China,18486,114094,"Hmong Bua","Hmong Bua",68000,1,Y,cqd,"Miao, Chuanqiandian Cluster",4,4,"Ethnic Religions",1.600,1.600,20,A011,"Southeast Asian Peoples",230,C0138,"Miao / Hmong",3,3,"Asia, Northeast",ASI,Asia,Y,Y,1,N,22.775496679828,103.07791298869
CH,China,12112,103844,"Hmong Daw","Hmong Daw",306000,1,Y,mww,"Hmong Daw",5,4,"Ethnic Religions",1.800,1.200,20,A011,"Southeast Asian Peoples",230,C0138,"Miao / Hmong",7,3,"Asia, Northeast",ASI,Asia,Y,Y,6,N,27.0457714399,105.01669524179
CH,China,18492,114103,"Hmong Dlex Nchab","Hmong Dlex Nchab",21000,1,Y,mww,"Hmong Daw",5,4,"Ethnic Religions",0.000,0.000,20,A011,"Southeast Asian Peoples",230,C0138,"Miao / Hmong",1,3,"Asia, Northeast",ASI,Asia,Y,Y,1,Y,26.993360841133,104.90278613981
CH,China,18493,114104,"Hmong Dou","Hmong Dou",4200,4,N,hmd,"Miao, Large Flowery",5,4,"Ethnic Religions",11.000,9.463,20,A011,"Southeast Asian Peoples",230,C0138,"Miao / Hmong",1,3,"Asia, Northeast",ASI,Asia,Y,Y,,N,27.577297747893,105.40376809362
CH,China,18494,114105,"Hmong Leng","Hmong Leng",326000,1,Y,mww,"Hmong Daw",5,4,"Ethnic Religions",0.200,0.200,20,A011,"Southeast Asian Peoples",230,C0138,"Miao / Hmong",1,3,"Asia, Northeast",ASI,Asia,Y,Y,7,N,23.049123999973,103.76413200019
CH,China,18495,114106,"Hmong Njua","Hmong Njua",55000,1,Y,hnj,"Hmong Njua",5,4,"Ethnic Religions",1.200,0.945,20,A011,"Southeast Asian Peoples",230,C0138,"Miao / Hmong",10,3,"Asia, Northeast",ASI,Asia,Y,Y,1,N,26.17829,105.77643
CH,China,18496,114107,"Hmong Shua, Sinicized","Hmong Shua, Sinicized",353000,1,Y,hmz,"Sinicized Miao",3,4,"Ethnic Religions",2.500,1.800,20,A011,"Southeast Asian Peoples",230,C0138,"Miao / Hmong",2,3,"Asia, Northeast",ASI,Asia,Y,Y,7,N,25.77496,105.35531
CH,China,18498,114109,"Hmu, Eastern","Hmu, Eastern",594000,1,Y,hmq,"Miao, Eastern Qiandong",1,4,"Ethnic Religions",3.000,0.221,20,A011,"Southeast Asian Peoples",230,C0138,"Miao / Hmong",1,3,"Asia, Northeast",ASI,Asia,Y,Y,12,N,26.57068,108.99686
CH,China,18499,114110,"Hmu, Northern","Hmu, Northern",2094000,1,Y,hea,"Miao, Northern Qiandong",4,4,"Ethnic Religions",0.300,0.250,20,A011,"Southeast Asian Peoples",230,C0138,"Miao / Hmong",1,3,"Asia, Northeast",ASI,Asia,Y,Y,42,N,26.680469383355,108.19548907766
CH,China,18742,114378,"Hmu, Southern","Hmu, Southern",849000,1,Y,hms,"Miao, Southern Qiandong",1,4,"Ethnic Religions",0.200,0.062,23,A014,"Tibetan-Himalayan Peoples",317,C0229,"Tibeto-Burman, other",1,3,"Asia, Northeast",ASI,Asia,Y,Y,17,N,25.58006,108.7147
CH,China,18500,114111,"Hongjin Tai","Hongjin Tai",97000,1,Y,tiz,"Tai Hongjin",0,4,"Ethnic Religions",1.500,1.400,20,A011,"Southeast Asian Peoples",295,C0207,Tai,1,3,"Asia, Northeast",ASI,Asia,Y,Y,2,N,23.30879999962,102.58553999967
CH,China,12129,103882,Hu,Hu,1100,1,Y,huo,Hu,1,2,Buddhism,0.268,0.268,20,A011,"Southeast Asian Peoples",239,C0147,Mon-Khmer,1,3,"Asia, Northeast",ASI,Asia,Y,Y,1,N,22.01512,100.88299
CH,China,18502,114113,"Huayao Tai","Huayao Tai",91000,1,Y,khb,Lu,4,2,Buddhism,0.300,0.285,20,A011,"Southeast Asian Peoples",295,C0207,Tai,1,3,"Asia, Northeast",ASI,Asia,Y,Y,2,N,23.847727184862,101.74547820785
CH,China,12140,103896,"Hui, Muslim Chinese",Hui,13733000,1,Y,cmn,"Chinese, Mandarin",5,6,Islam,0.007,0.006,11,A002,"East Asian Peoples",162,C0066,"Hui, Dungan",10,3,"Asia, Northeast",ASI,Asia,Y,Y,275,Y,37.097817999801,106.24813400028
CH,China,18503,114115,Indonesian,Indonesian,11000,5,N,ind,Indonesian,5,1,Christianity,51.000,45.454,17,A008,"Malay Peoples",215,C0123,Malay,18,3,"Asia, Northeast",ASI,Asia,Y,N,,N,18.762010469707,110.22165428562
CH,China,12289,104117,"Iu Mien","Iu Mien",1290000,1,Y,ium,"Iu Mien",5,4,"Ethnic Religions",0.699,0.152,20,A011,"Southeast Asian Peoples",319,C0232,Yao-Mien,7,3,"Asia, Northeast",ASI,Asia,Y,Y,26,N,24.424130000199,110.31541999973
CH,China,18504,114116,"Iu Mien, Changping","Iu Mien, Changping",30000,1,Y,ium,"Iu Mien",5,4,"Ethnic Religions",0.000,0.000,20,A011,"Southeast Asian Peoples",319,C0232,Yao-Mien,1,3,"Asia, Northeast",ASI,Asia,Y,Y,1,Y,24.427750253161,110.32175154537
CH,China,18505,114117,"Iu Mien, Hunan","Iu Mien, Hunan",223000,1,Y,ium,"Iu Mien",5,4,"Ethnic Religions",0.000,0.000,20,A011,"Southeast Asian Peoples",319,C0232,Yao-Mien,1,3,"Asia, Northeast",ASI,Asia,Y,Y,4,Y,24.431074085293,110.32132516937
CH,China,18506,114118,"Iu Mien, Luoxiang","Iu Mien, Luoxiang",5000,1,Y,ium,"Iu Mien",5,4,"Ethnic Religions",0.500,0.387,20,A011,"Southeast Asian Peoples",319,C0232,Yao-Mien,1,3,"Asia, Northeast",ASI,Asia,Y,Y,1,N,24.430128460541,110.31604940431
CH,China,12322,104189,Japanese,Japanese,6900,1,Y,jpn,Japanese,5,2,Buddhism,0.000,0.000,11,A002,"East Asian Peoples",194,C0099,Japanese,48,3,"Asia, Northeast",ASI,Asia,Y,N,1,Y,45.78599294342,126.69470057357
CH,China,18507,114119,"Jiarong, Chabao","Jiarong, Chabao",18000,1,Y,jya,Jiarong,3,2,Buddhism,0.000,0.000,23,A014,"Tibetan-Himalayan Peoples",304,C0216,Tibetan,1,3,"Asia, Northeast",ASI,Asia,Y,Y,1,Y,31.747239040449,102.07863711221
CH,China,18508,114120,"Jiarong, Guanyingqiao","Jiarong, Guanyingqiao",7900,1,Y,jiq,Lavrung,1,2,Buddhism,0.000,0.000,23,A014,"Tibetan-Himalayan Peoples",304,C0216,Tibetan,1,3,"Asia, Northeast",ASI,Asia,Y,Y,1,Y,31.56552,101.9276
CH,China,18509,114121,"Jiarong, Shangzhai","Jiarong, Shangzhai",5200,1,Y,jih,sTodsde,1,2,Buddhism,0.000,0.000,23,A014,"Tibetan-Himalayan Peoples",304,C0216,Tibetan,1,3,"Asia, Northeast",ASI,Asia,Y,Y,1,Y,31.98446,101.01553
CH,China,18510,114122,"Jiarong, Sidabao","Jiarong, Sidabao",7100,1,Y,jiq,Lavrung,1,2,Buddhism,0.000,0.000,23,A014,"Tibetan-Himalayan Peoples",304,C0216,Tibetan,1,3,"Asia, Northeast",ASI,Asia,Y,Y,1,Y,31.565519999848,101.92759999994
CH,China,18511,114123,"Jiarong, Situ","Jiarong, Situ",206000,1,Y,jya,Jiarong,3,2,Buddhism,0.029,0.029,23,A014,"Tibetan-Himalayan Peoples",304,C0216,Tibetan,1,3,"Asia, Northeast",ASI,Asia,Y,Y,4,Y,31.849206999703,102.295402
CH,China,18512,114124,Jiasou,Jiasou,40000,1,Y,ysn,Sani,0,4,"Ethnic Religions",0.014,0.014,23,A014,"Tibetan-Himalayan Peoples",317,C0229,"Tibeto-Burman, other",1,3,"Asia, Northeast",ASI,Asia,Y,Y,1,Y,23.712641195735,105.06965533682
CH,China,12700,105018,Vietnamese,"Jing, Vietnamese",23000,1,Y,vie,Vietnamese,5,4,"Ethnic Religions",3.000,0.150,20,A011,"Southeast Asian Peoples",316,C0228,Vietnamese,36,3,"Asia, Northeast",ASI,Asia,Y,N,1,N,19.369897370867,110.0931812741
CH,China,18514,114127,Jinuo,Jinuo,23000,1,Y,jiu,"Jinuo, Youle",1,4,"Ethnic Religions",3.000,0.516,23,A014,"Tibetan-Himalayan Peoples",317,C0229,"Tibeto-Burman, other",1,3,"Asia, Northeast",ASI,Asia,Y,Y,1,N,22.04093,101.05647
CH,China,18515,114128,"Jinuo, Buyuan","Jinuo, Buyuan",1600,1,Y,jiy,"Jinuo, Buyuan",1,4,"Ethnic Religions",2.000,1.587,23,A014,"Tibetan-Himalayan Peoples",317,C0229,"Tibeto-Burman, other",1,3,"Asia, Northeast",ASI,Asia,Y,Y,1,N,22.04987,101.01648
CH,China,12401,104372,Kachin,"Kachin Jingpo",35000,5,N,kac,Jingpho,5,1,Christianity,54.000,27.131,23,A014,"Tibetan-Himalayan Peoples",234,C0142,Miri-Kachin,3,3,"Asia, Northeast",ASI,Asia,Y,Y,,N,24.73079999962,97.739220000103
CH,China,18516,114129,Kado,Kado,198000,5,N,ktp,Kaduo,1,4,"Ethnic Religions",35.000,32.546,23,A014,"Tibetan-Himalayan Peoples",185,C0089,Hani,2,3,"Asia, Northeast",ASI,Asia,Y,Y,,N,24.49692,97.74512
CH,China,14129,107607,Kalmyk-Oirat,"Kalmyk, Torgut",192000,1,Y,xal,Kalmyk-Oirat,4,2,Buddhism,0.000,0.000,11,A002,"East Asian Peoples",238,C0146,Mongolian,7,3,"Asia, Northeast",ASI,Asia,Y,Y,4,Y,37.525887000185,95.7340129996
CH,China,20625,116867,Kangjia,Kangjia,2200,1,Y,kxs,Kangjia,0,6,Islam,0.000,0.000,11,A002,"East Asian Peoples",162,C0066,"Hui, Dungan",1,3,"Asia, Northeast",ASI,Asia,Y,Y,1,Y,35.502744,102.016472
CH,China,20602,116869,Kathu,Kathu,5500,1,Y,ykt,Kathu,1,4,"Ethnic Religions",0.000,0.000,23,A014,"Tibetan-Himalayan Peoples",317,C0229,"Tibeto-Burman, other",1,3,"Asia, Northeast",ASI,Asia,Y,Y,1,Y,24.051536,105.068759
CH,China,19683,115846,Katso,Katso,8300,1,Y,kaf,Katso,1,4,"Ethnic Religions",0.050,0.050,11,A002,"East Asian Peoples",238,C0146,Mongolian,1,3,"Asia, Northeast",ASI,Asia,Y,Y,1,Y,24.56029,102.48499
CH,China,19401,110596,"Wa, Vo",Kawa,93000,1,Y,wbm,"Wa, Vo",5,4,"Ethnic Religions",0.200,0.200,20,A011,"Southeast Asian Peoples",239,C0147,Mon-Khmer,2,3,"Asia, Northeast",ASI,Asia,Y,Y,2,N,22.620480000052,99.584490000413
CH,China,12599,104791,Kazakh,Kazakh,1862000,1,Y,kaz,Kazakh,5,6,Islam,0.012,0.012,24,A015,"Turkic Peoples",202,C0108,Kazakh,24,3,"Asia, Northeast",ASI,Asia,Y,Y,37,Y,43.429760530324,83.270890940065
CH,China,18517,114131,"Kazakh, Qinghai","Kazakh, Qinghai",3700,1,Y,kaz,Kazakh,5,6,Islam,0.000,0.000,24,A015,"Turkic Peoples",202,C0108,Kazakh,1,3,"Asia, Northeast",ASI,Asia,Y,Y,1,Y,36.553576610872,94.75689785815
CH,China,18518,114132,Keji,Keji,2500,1,Y,bod,"Tibetan, Central",5,6,Islam,0.000,0.000,11,A002,"East Asian Peoples",162,C0066,"Hui, Dungan",1,3,"Asia, Northeast",ASI,Asia,Y,Y,1,Y,29.653550991285,91.120958763836
CH,China,18519,114133,Kemei,Kemei,1700,1,Y,kfj,Kemiehua,1,4,"Ethnic Religions",0.000,0.000,20,A011,"Southeast Asian Peoples",239,C0147,Mon-Khmer,1,3,"Asia, Northeast",ASI,Asia,Y,Y,1,Y,22.01638,100.79952
CH,China,18520,114134,Keriya,Keriya,800,1,Y,uig,Uyghur,5,6,Islam,0.000,0.000,24,A015,"Turkic Peoples",313,C0225,Uyghur,1,3,"Asia, Northeast",ASI,Asia,Y,Y,1,Y,36.853089297333,81.66232388364
CH,China,18522,114136,"Khampa Eastern","Khampa Eastern",1597000,1,Y,khg,"Tibetan, Khams",4,2,Buddhism,0.050,0.010,23,A014,"Tibetan-Himalayan Peoples",304,C0216,Tibetan,3,3,"Asia, Northeast",ASI,Asia,Y,Y,32,Y,31.623867999808,100.00158900033
CH,China,18523,114137,"Khampa, Northern","Khampa, Northern",151000,1,Y,khg,"Tibetan, Khams",4,2,Buddhism,0.020,0.010,23,A014,"Tibetan-Himalayan Peoples",304,C0216,Tibetan,1,3,"Asia, Northeast",ASI,Asia,Y,Y,3,Y,31.940402480935,91.707360678097
CH,China,18524,114138,"Khampa, Western","Khampa, Western",267000,1,Y,khg,"Tibetan, Khams",4,2,Buddhism,0.010,0.010,23,A014,"Tibetan-Himalayan Peoples",304,C0216,Tibetan,1,3,"Asia, Northeast",ASI,Asia,Y,Y,5,Y,31.937464140058,91.711442873086
CH,China,18693,103535,"Khik (Wakhi)","Khik (Wakhi)",14000,1,Y,wbl,Wakhi,3,6,Islam,0.000,0.000,14,A005,Persian-Median,299,C0211,Tajik,4,3,"Asia, Northeast",ASI,Asia,Y,Y,1,Y,37.60199,75.38771
CH,China,21075,116871,Khlula,Khlula,35000,1,Y,ykl,Khlula,1,4,"Ethnic Religions",0.000,0.000,23,A014,"Tibetan-Himalayan Peoples",317,C0229,"Tibeto-Burman, other",1,3,"Asia, Northeast",ASI,Asia,Y,Y,1,Y,23.191304,104.303893
CH,China,18878,114799,Khmu,Khmu,6900,1,Y,kjg,Khmu,3,4,"Ethnic Religions",0.900,0.714,20,A011,"Southeast Asian Peoples",239,C0147,Mon-Khmer,6,3,"Asia, Northeast",ASI,Asia,Y,Y,1,N,21.21281,101.69684
CH,China,14473,108170,"Khmu, Puman","Khmu, Puman",30000,1,Y,uuu,U,0,2,Buddhism,0.049,0.049,20,A011,"Southeast Asian Peoples",239,C0147,Mon-Khmer,1,3,"Asia, Northeast",ASI,Asia,Y,Y,1,Y,22.68494,101.7721
CH,China,12688,105005,"Kim Mun","Kim Mun",335000,1,Y,mji,"Kim Mun",0,4,"Ethnic Religions",0.200,0.116,20,A011,"Southeast Asian Peoples",319,C0232,Yao-Mien,3,3,"Asia, Northeast",ASI,Asia,Y,Y,7,N,25.65857,108.98492
CH,China,18525,114140,"Kiong Nai","Kiong Nai",2400,4,N,pnu,"Bunu, Jiongnai",1,4,"Ethnic Religions",4.500,4.500,20,A011,"Southeast Asian Peoples",319,C0232,Yao-Mien,1,3,"Asia, Northeast",ASI,Asia,Y,Y,,N,23.87256,110.01522
CH,China,18526,114141,"Kong Ge","Kong Ge",1800,1,Y,kkn,"Kon Keu",1,4,"Ethnic Religions",0.908,0.908,20,A011,"Southeast Asian Peoples",239,C0147,Mon-Khmer,1,3,"Asia, Northeast",ASI,Asia,Y,Y,1,N,21.60538531588,100.28618215528
CH,China,12795,105225,Korean,Korean,2564000,5,N,kor,Korean,5,4,"Ethnic Religions",30.000,14.000,11,A002,"East Asian Peoples",205,C0111,Korean,51,3,"Asia, Northeast",ASI,Asia,Y,N,,N,44.70691,128.98675
CH,China,20588,116878,Kua-nsi,Kua-nsi,5400,1,Y,ykn,Kua-nsi,1,4,"Ethnic Religions",3.000,1.000,23,A014,"Tibetan-Himalayan Peoples",317,C0229,"Tibeto-Burman, other",1,3,"Asia, Northeast",ASI,Asia,Y,Y,1,N,26.418554,100.33431
CH,China,20589,116876,Kuamasi,Kuamasi,1100,1,Y,yku,Kuamasi,1,4,"Ethnic Religions",1.000,0.500,23,A014,"Tibetan-Himalayan Peoples",317,C0229,"Tibeto-Burman, other",1,3,"Asia, Northeast",ASI,Asia,Y,Y,1,N,26.409516,100.332358
CH,China,19157,115229,"Kuan, Khuen","Kuan, Khuen",1600,1,Y,khf,Khuen,1,2,Buddhism,0.110,0.100,20,A011,"Southeast Asian Peoples",239,C0147,Mon-Khmer,3,3,"Asia, Northeast",ASI,Asia,Y,Y,1,N,21.975613012331,101.17157096623
CH,China,18528,114143,Kucong,Kucong,44000,1,Y,lkc,Kucong,1,2,Buddhism,2.000,0.004,23,A014,"Tibetan-Himalayan Peoples",317,C0229,"Tibeto-Burman, other",2,3,"Asia, Northeast",ASI,Asia,Y,Y,1,N,22.0645,100.09313
CH,China,18529,114144,Kyakala,Kyakala,3000,1,Y,cmn,"Chinese, Mandarin",5,7,Non-Religious,2.000,1.500,24,A015,"Turkic Peoples",107,C0009,Altaic,1,3,"Asia, Northeast",ASI,Asia,Y,Y,1,N,49.903155670897,127.33943187968
CH,China,12931,105548,Kyerung,Kyerung,8400,1,Y,kgy,Kyerung,0,2,Buddhism,0.000,0.000,21,A012,"South Asian Peoples",402,A012,"South Asia Buddhist",2,3,"Asia, Northeast",ASI,Asia,Y,Y,1,Y,28.34572,85.50088
CH,China,12933,105550,Kyrgyz,Kyrgyz,238000,1,Y,kir,Kyrgyz,5,6,Islam,0.200,0.180,24,A015,"Turkic Peoples",204,C0110,Kyrgyz,14,3,"Asia, Northeast",ASI,Asia,Y,Y,5,N,39.12078,74.47531
CH,China,12935,105552,Laba,Laba,301000,1,Y,cmn,"Chinese, Mandarin",5,4,"Ethnic Religions",0.300,0.219,20,A011,"Southeast Asian Peoples",230,C0138,"Miao / Hmong",1,3,"Asia, Northeast",ASI,Asia,Y,Y,6,N,26.234183999792,104.8447800004
CH,China,18530,114146,Labapo,Labapo,8400,1,Y,ysn,Sani,0,4,"Ethnic Religions",0.000,0.000,23,A014,"Tibetan-Himalayan Peoples",317,C0229,"Tibeto-Burman, other",1,3,"Asia, Northeast",ASI,Asia,Y,Y,1,Y,23.637000240069,103.3899092607
CH,China,18542,114159,Lachi,Lachi,2600,1,Y,lbt,Lachi,0,4,"Ethnic Religions",0.000,0.000,20,A011,"Southeast Asian Peoples",295,C0207,Tai,2,3,"Asia, Northeast",ASI,Asia,Y,Y,1,Y,22.9305,104.68886
CH,China,12939,105559,Ladakhi,Ladakhi,600,1,Y,lbj,Ladakhi,4,2,Buddhism,0.000,0.000,23,A014,"Tibetan-Himalayan Peoples",317,C0229,"Tibeto-Burman, other",1,3,"Asia, Northeast",ASI,Asia,Y,Y,1,Y,34.838670924224,78.88977588445
CH,China,18531,114147,Lagou,Lagou,7900,5,N,yig,"Nasu, Wusa",4,4,"Ethnic Religions",35.000,35.000,23,A014,"Tibetan-Himalayan Peoples",317,C0229,"Tibeto-Burman, other",1,3,"Asia, Northeast",ASI,Asia,Y,Y,,N,27.029302578851,104.11933440306
CH,China,12949,105576,Lahu,Lahu,314000,5,N,lhu,Lahu,5,1,Christianity,55.000,33.000,23,A014,"Tibetan-Himalayan Peoples",317,C0229,"Tibeto-Burman, other",6,3,"Asia, Northeast",ASI,Asia,Y,Y,,N,22.571082041403,99.922488782631
CH,China,16018,111024,"Lahu Shi","Lahu Shi",128000,2,N,lhi,"Lahu Shi",4,2,Buddhism,10.000,2.000,23,A014,"Tibetan-Himalayan Peoples",317,C0229,"Tibeto-Burman, other",5,3,"Asia, Northeast",ASI,Asia,Y,Y,,N,22.02896,100.02157
CH,China,18532,114148,Lahaula,"Lahuli, Tinan",3200,1,Y,lbf,Tinani,4,2,Buddhism,0.000,0.000,21,A012,"South Asian Peoples",475,A012,"South Asia Tribal - other",2,3,"Asia, Northeast",ASI,Asia,Y,Y,1,Y,32.25891,78.63276
CH,China,18901,114854,Laka,Laka,7900,5,N,xxx,"Language unknown",0,1,Christianity,41.000,32.520,23,A014,"Tibetan-Himalayan Peoples",317,C0229,"Tibeto-Burman, other",1,3,"Asia, Northeast",ASI,Asia,Y,Y,,N,25.58813535866,102.178363469
CH,China,18533,114150,Lakkia,Lakkia,14000,1,Y,lbc,Lakkia,3,4,"Ethnic Religions",0.000,0.000,20,A011,"Southeast Asian Peoples",319,C0232,Yao-Mien,1,3,"Asia, Northeast",ASI,Asia,Y,Y,1,Y,24.13876,110.13703
CH,China,18534,114151,"Lalu, Xinping","Lalu, Xinping",51000,1,Y,yit,"Lalu, Eastern",0,4,"Ethnic Religions",0.500,0.300,23,A014,"Tibetan-Himalayan Peoples",317,C0229,"Tibeto-Burman, other",1,3,"Asia, Northeast",ASI,Asia,Y,Y,1,N,23.81559,101.25281
CH,China,18535,114152,"Lalu, Xuzhang","Lalu, Xuzhang",5300,1,Y,yik,"Lalo, Dongshanba",0,4,"Ethnic Religions",0.000,0.000,23,A014,"Tibetan-Himalayan Peoples",317,C0229,"Tibeto-Burman, other",1,3,"Asia, Northeast",ASI,Asia,Y,Y,1,Y,25.370726945692,99.046079971214
CH,China,18536,114153,"Lalu, Yangliu","Lalu, Yangliu",49000,1,Y,ywl,"Lalu, Western",1,4,"Ethnic Religions",0.000,0.000,23,A014,"Tibetan-Himalayan Peoples",317,C0229,"Tibeto-Burman, other",1,3,"Asia, Northeast",ASI,Asia,Y,Y,1,Y,24.70491,98.90708
CH,China,18537,114154,"Laluo, Jiantou","Laluo, Jiantou",40000,1,Y,yik,"Lalo, Dongshanba",0,4,"Ethnic Religions",2.000,0.065,23,A014,"Tibetan-Himalayan Peoples",317,C0229,"Tibeto-Burman, other",1,3,"Asia, Northeast",ASI,Asia,Y,Y,1,N,25.463143000449,99.937767999793
CH,China,18538,114155,"Laluo, Mishaba","Laluo, Mishaba",686000,1,Y,yik,"Lalo, Dongshanba",0,4,"Ethnic Religions",0.150,0.100,23,A014,"Tibetan-Himalayan Peoples",317,C0229,"Tibeto-Burman, other",1,3,"Asia, Northeast",ASI,Asia,Y,Y,14,N,25.046669999721,100.23445900038
CH,China,18539,114156,Lami,Lami,132000,1,Y,yik,"Lalo, Dongshanba",0,4,"Ethnic Religions",2.500,1.992,23,A014,"Tibetan-Himalayan Peoples",185,C0089,Hani,1,3,"Asia, Northeast",ASI,Asia,Y,Y,3,N,25.435,100.178
CH,China,20788,117307,Lamu,Lamu,2100,2,N,lpo,Lipo,5,4,"Ethnic Religions",15.000,2.000,23,A014,"Tibetan-Himalayan Peoples",317,C0229,"Tibeto-Burman, other",1,3,"Asia, Northeast",ASI,Asia,Y,Y,,N,26.0366,100.7874
CH,China,20604,116879,Lang'e,Lang'e,2200,1,Y,yne,Lang'e,1,4,"Ethnic Religions",0.000,0.000,23,A014,"Tibetan-Himalayan Peoples",317,C0229,"Tibeto-Burman, other",1,3,"Asia, Northeast",ASI,Asia,Y,Y,1,Y,26.685765,100.744867
CH,China,19797,115283,Laomian,Laomian,5400,1,Y,lwm,Laomian,1,4,"Ethnic Religions",0.300,0.300,11,A002,"East Asian Peoples",161,C0065,Chinese,1,3,"Asia, Northeast",ASI,Asia,Y,Y,1,N,22.98884,99.7867
CH,China,18540,114157,Laowu,Laowu,23000,1,Y,nsd,"Nisu, Southern",3,4,"Ethnic Religions",0.000,0.000,23,A014,"Tibetan-Himalayan Peoples",317,C0229,"Tibeto-Burman, other",1,3,"Asia, Northeast",ASI,Asia,Y,Y,1,Y,22.753410605615,103.17825399343
CH,China,18541,114158,Lashi,Lashi,2500,5,N,lsi,Lacid,5,4,"Ethnic Religions",35.000,15.000,23,A014,"Tibetan-Himalayan Peoples",317,C0229,"Tibeto-Burman, other",2,3,"Asia, Northeast",ASI,Asia,Y,Y,,N,26.06635,98.6374
CH,China,18543,114160,Lawa,Lawa,107000,5,N,vwa,"Awa (China)",1,2,Buddhism,20.000,18.000,20,A011,"Southeast Asian Peoples",239,C0147,Mon-Khmer,1,3,"Asia, Northeast",ASI,Asia,Y,Y,,N,21.50827000036,100.57753000031
CH,China,18544,114161,Lawu,Lawu,26000,1,Y,yik,"Lalo, Dongshanba",0,4,"Ethnic Religions",0.200,0.018,23,A014,"Tibetan-Himalayan Peoples",317,C0229,"Tibeto-Burman, other",1,3,"Asia, Northeast",ASI,Asia,Y,Y,1,N,24.041898779005,101.4831181249
CH,China,18545,114162,Lemo,Lemo,2700,1,Y,cmn,"Chinese, Mandarin",5,2,Buddhism,0.000,0.000,23,A014,"Tibetan-Himalayan Peoples",212,C0118,Lisu,1,3,"Asia, Northeast",ASI,Asia,Y,Y,1,Y,26.555192661312,98.920668705197
CH,China,18546,114163,Lesu,Lesu,19000,1,Y,hle,Hlersu,1,4,"Ethnic Religions",0.100,0.032,23,A014,"Tibetan-Himalayan Peoples",317,C0229,"Tibeto-Burman, other",1,3,"Asia, Northeast",ASI,Asia,Y,Y,1,Y,23.888710426345,102.13849248924
CH,China,16499,111670,Bokar,"Lhoba, Bokar",4300,1,Y,adi,Adi,5,4,"Ethnic Religions",0.000,0.000,21,A012,"South Asian Peoples",475,A012,"South Asia Tribal - other",2,3,"Asia, Northeast",ASI,Asia,Y,Y,1,Y,28.40806820928,92.394177267267
CH,China,13050,112269,"Lhoba, Idu","Lhoba, Idu",10000,1,Y,clk,Idu-Mishmi,3,4,"Ethnic Religions",0.000,0.000,21,A012,"South Asian Peoples",475,A012,"South Asia Tribal - other",2,3,"Asia, Northeast",ASI,Asia,Y,Y,1,Y,29.447249999688,95.647159999934
CH,China,18548,114165,Lhomi,Lhomi,1700,1,Y,lhm,Lhomi,4,2,Buddhism,0.000,0.000,21,A012,"South Asian Peoples",402,A012,"South Asia Buddhist",3,3,"Asia, Northeast",ASI,Asia,Y,Y,1,Y,27.91256,87.41925
CH,China,18549,114166,"Li, Bendi","Li, Bendi",80000,1,Y,lic,Hlai,3,4,"Ethnic Religions",0.100,0.030,20,A011,"Southeast Asian Peoples",211,C0117,Li,1,3,"Asia, Northeast",ASI,Asia,Y,Y,2,Y,19.157431999687,109.2105719996
CH,China,18550,114167,"Li, Ha","Li, Ha",702000,1,Y,lic,Hlai,3,4,"Ethnic Religions",0.200,0.111,20,A011,"Southeast Asian Peoples",211,C0117,Li,1,3,"Asia, Northeast",ASI,Asia,Y,Y,14,N,18.62380000017,109.35712100023
CH,China,18551,114168,"Li, Jiamao","Li, Jiamao",94000,1,Y,jio,Jiamao,0,4,"Ethnic Religions",0.200,0.069,20,A011,"Southeast Asian Peoples",211,C0117,Li,1,3,"Asia, Northeast",ASI,Asia,Y,Y,2,N,18.59128,109.85817
CH,China,18552,114169,"Li, Meifu","Li, Meifu",54000,1,Y,lic,Hlai,3,4,"Ethnic Religions",0.100,0.030,20,A011,"Southeast Asian Peoples",211,C0117,Li,1,3,"Asia, Northeast",ASI,Asia,Y,Y,1,Y,18.866721999721,108.84658700019
CH,China,18553,114170,"Li, Qi","Li, Qi",320000,1,Y,lic,Hlai,3,4,"Ethnic Religions",0.200,0.142,20,A011,"Southeast Asian Peoples",211,C0117,Li,1,3,"Asia, Northeast",ASI,Asia,Y,Y,6,N,19.009022999612,109.92128400026
CH,China,18554,114171,Limi,Limi,38000,1,Y,ylm,Limi,1,4,"Ethnic Religions",0.100,0.100,23,A014,"Tibetan-Himalayan Peoples",317,C0229,"Tibeto-Burman, other",1,3,"Asia, Northeast",ASI,Asia,Y,Y,1,Y,24.26896,99.8148
CH,China,18555,114172,Limin,Limin,101000,1,Y,cmn,"Chinese, Mandarin",5,4,"Ethnic Religions",0.150,0.131,23,A014,"Tibetan-Himalayan Peoples",317,C0229,"Tibeto-Burman, other",1,3,"Asia, Northeast",ASI,Asia,Y,Y,2,N,26.24142036226,105.44446995163
CH,China,18556,114173,Lingao,Lingao,686000,4,N,onb,Lingao,4,4,"Ethnic Religions",4.200,4.000,20,A011,"Southeast Asian Peoples",211,C0117,Li,1,3,"Asia, Northeast",ASI,Asia,Y,Y,,N,19.8289,109.89222
CH,China,18557,114174,Linghua,Linghua,27000,1,Y,cmn,"Chinese, Mandarin",5,4,"Ethnic Religions",0.000,0.000,11,A002,"East Asian Peoples",161,C0065,Chinese,1,3,"Asia, Northeast",ASI,Asia,Y,Y,1,Y,25.875533758976,110.09777332668
CH,China,18558,114175,"Lipo, Eastern","Lipo, Eastern",117000,5,N,lpo,Lipo,5,1,Christianity,67.000,50.000,23,A014,"Tibetan-Himalayan Peoples",317,C0229,"Tibeto-Burman, other",1,3,"Asia, Northeast",ASI,Asia,Y,Y,,N,26.643590000178,100.85985000008
CH,China,18559,114176,"Lipo, Western","Lipo, Western",184000,1,Y,xxx,"Language unknown",0,4,"Ethnic Religions",1.500,1.000,23,A014,"Tibetan-Himalayan Peoples",317,C0229,"Tibeto-Burman, other",1,3,"Asia, Northeast",ASI,Asia,Y,Y,4,N,26.64359,100.85985
CH,China,13076,105802,Lisu,Lisu,922000,5,N,lis,Lisu,5,1,Christianity,80.000,45.000,23,A014,"Tibetan-Himalayan Peoples",212,C0118,Lisu,4,3,"Asia, Northeast",ASI,Asia,Y,Y,,N,25.964620000113,98.848969999666
CH,China,18560,114177,Liude,Liude,1900,1,Y,xxx,"Language unknown",0,4,"Ethnic Religions",0.052,0.052,23,A014,"Tibetan-Himalayan Peoples",317,C0229,"Tibeto-Burman, other",1,3,"Asia, Northeast",ASI,Asia,Y,Y,1,Y,26.738429879835,100.66302789882
CH,China,18561,114178,Liujia,Liujia,4900,1,Y,cmn,"Chinese, Mandarin",5,4,"Ethnic Religions",0.000,0.000,11,A002,"East Asian Peoples",161,C0065,Chinese,1,3,"Asia, Northeast",ASI,Asia,Y,Y,1,Y,25.512987326804,105.00422559394
CH,China,18562,114179,Liwu,Liwu,5500,1,Y,xxx,"Language unknown",0,4,"Ethnic Religions",0.000,0.000,23,A014,"Tibetan-Himalayan Peoples",317,C0229,"Tibeto-Burman, other",1,3,"Asia, Northeast",ASI,Asia,Y,Y,1,Y,26.73108306713,100.7618860564
CH,China,18563,114180,Long,Long,1700,1,Y,ysn,Sani,0,4,"Ethnic Religions",0.000,0.000,23,A014,"Tibetan-Himalayan Peoples",317,C0229,"Tibeto-Burman, other",1,3,"Asia, Northeast",ASI,Asia,Y,Y,1,Y,24.254432025618,102.89725552402
CH,China,18564,114181,Longjia,Longjia,4100,4,N,cmn,"Chinese, Mandarin",5,4,"Ethnic Religions",4.500,3.800,11,A002,"East Asian Peoples",161,C0065,Chinese,1,3,"Asia, Northeast",ASI,Asia,Y,Y,,N,25.571016026069,105.02055445393
CH,China,18565,114182,Lopi,Lopi,5600,5,N,lov,Lopi,1,4,"Ethnic Religions",20.000,15.000,20,A011,"Southeast Asian Peoples",260,C0171,"Southeast Asian, other",1,3,"Asia, Northeast",ASI,Asia,Y,Y,,N,25.08332,97.08332
CH,China,19177,114823,"Lopi, Shuitian","Lopi, Shuitian",20000,1,Y,cmn,"Chinese, Mandarin",5,7,Non-Religious,0.700,0.044,23,A014,"Tibetan-Himalayan Peoples",317,C0229,"Tibeto-Burman, other",1,3,"Asia, Northeast",ASI,Asia,Y,Y,1,N,26.579816837277,101.36435782475
CH,China,19030,114824,"Lu, Lu Ren","Lu, Lu Ren",6100,1,Y,cmn,"Chinese, Mandarin",5,4,"Ethnic Religions",0.000,0.000,24,A015,"Turkic Peoples",107,C0009,Altaic,1,3,"Asia, Northeast",ASI,Asia,Y,Y,1,Y,27.02566,106.057081
CH,China,18567,114184,"Luoluopo, Central","Luoluopo, Central",458000,1,Y,ycl,Lolopo,4,4,"Ethnic Religions",1.000,0.056,23,A014,"Tibetan-Himalayan Peoples",317,C0229,"Tibeto-Burman, other",1,3,"Asia, Northeast",ASI,Asia,Y,Y,9,N,25.488942000373,101.28301299995
CH,China,18568,114185,"Luoluopo, Southeastern","Luoluopo, Southeastern",47000,1,Y,yso,Nisi,1,4,"Ethnic Religions",0.000,0.000,23,A014,"Tibetan-Himalayan Peoples",317,C0229,"Tibeto-Burman, other",1,3,"Asia, Northeast",ASI,Asia,Y,Y,1,Y,22.93063,104.55881
CH,China,18569,114186,"Luoluopo, Southern","Luoluopo, Southern",251000,1,Y,ysp,"Lolopo, Southern",1,4,"Ethnic Religions",0.200,0.051,23,A014,"Tibetan-Himalayan Peoples",317,C0229,"Tibeto-Burman, other",1,3,"Asia, Northeast",ASI,Asia,Y,Y,5,N,23.86354,100.77029
CH,China,18570,114187,Luowu,Luowu,29000,1,Y,yig,"Nasu, Wusa",4,4,"Ethnic Religions",0.000,0.000,23,A014,"Tibetan-Himalayan Peoples",317,C0229,"Tibeto-Burman, other",1,3,"Asia, Northeast",ASI,Asia,Y,Y,1,Y,24.693044934876,102.16761266299
CH,China,18571,114188,Luzu,Luzu,1200,1,Y,ers,Ersu,0,2,Buddhism,0.000,0.000,23,A014,"Tibetan-Himalayan Peoples",304,C0216,Tibetan,1,3,"Asia, Northeast",ASI,Asia,Y,Y,1,Y,28.337540000171,101.35823900033
CH,China,18572,114189,Malimasa,Malimasa,600,1,Y,nxq,Naxi,4,2,Buddhism,0.000,0.000,23,A014,"Tibetan-Himalayan Peoples",317,C0229,"Tibeto-Burman, other",1,3,"Asia, Northeast",ASI,Asia,Y,Y,1,Y,27.162147691263,99.304431169663
CH,China,13481,106218,Manchu,Manchu,149000,4,N,mnc,Manchu,4,7,Non-Religious,6.800,5.500,11,A002,"East Asian Peoples",161,C0065,Chinese,1,3,"Asia, Northeast",ASI,Asia,Y,Y,,N,42.2,122.32
CH,China,13495,106238,Mang,Mang,600,1,Y,zng,Mang,0,4,"Ethnic Religions",0.000,0.000,20,A011,"Southeast Asian Peoples",239,C0147,Mon-Khmer,2,3,"Asia, Northeast",ASI,Asia,Y,Y,1,Y,22.54426,102.94201
CH,China,13475,106206,Manmet,Manmet,1800,1,Y,mml,"Man Met",1,2,Buddhism,0.337,0.337,20,A011,"Southeast Asian Peoples",239,C0147,Mon-Khmer,1,3,"Asia, Northeast",ASI,Asia,Y,Y,1,N,22.08417,100.84396
CH,China,18573,114191,Manyak,Manyak,2400,1,Y,ers,Ersu,0,2,Buddhism,0.000,0.000,23,A014,"Tibetan-Himalayan Peoples",304,C0216,Tibetan,1,3,"Asia, Northeast",ASI,Asia,Y,Y,1,Y,28.391155000403,101.14302199957
CH,China,13521,106290,Maonan,Maonan,106000,4,N,mmd,Maonan,1,4,"Ethnic Religions",6.000,5.813,20,A011,"Southeast Asian Peoples",295,C0207,Tai,1,3,"Asia, Northeast",ASI,Asia,Y,Y,,N,25.0116,108.02494
CH,China,13557,106361,"Maru, Lhaovo",Maru,32000,5,N,mhx,"Lhao Vo",5,1,Christianity,79.000,30.000,23,A014,"Tibetan-Himalayan Peoples",317,C0229,"Tibeto-Burman, other",2,3,"Asia, Northeast",ASI,Asia,Y,N,,N,24.05203,101.317
CH,China,18574,114193,Meng,Meng,5300,4,N,hni,Hani,3,4,"Ethnic Religions",6.000,4.889,23,A014,"Tibetan-Himalayan Peoples",185,C0089,Hani,1,3,"Asia, Northeast",ASI,Asia,Y,Y,,N,23.362787086255,102.36363726705
CH,China,18575,114194,Mengwu,Mengwu,24000,1,Y,ysn,Sani,0,4,"Ethnic Religions",0.000,0.000,23,A014,"Tibetan-Himalayan Peoples",317,C0229,"Tibeto-Burman, other",1,3,"Asia, Northeast",ASI,Asia,Y,Y,1,Y,23.629694923882,105.25439930558
CH,China,18576,114195,Menia,Menia,1600,1,Y,ers,Ersu,0,2,Buddhism,0.000,0.000,23,A014,"Tibetan-Himalayan Peoples",304,C0216,Tibetan,1,3,"Asia, Northeast",ASI,Asia,Y,Y,1,Y,28.408954000127,101.37918400034
CH,China,18577,114196,"Miao, Baishi","Miao, Baishi",17000,1,Y,cmn,"Chinese, Mandarin",5,4,"Ethnic Religions",0.000,0.000,20,A011,"Southeast Asian Peoples",230,C0138,"Miao / Hmong",1,3,"Asia, Northeast",ASI,Asia,Y,Y,1,Y,26.971178824843,109.44542058819
CH,China,18428,114024,"Miao, Changshu","Miao, Changshu",21000,1,Y,cqd,"Miao, Chuanqiandian Cluster",4,4,"Ethnic Religions",3.400,1.900,20,A011,"Southeast Asian Peoples",230,C0138,"Miao / Hmong",1,3,"Asia, Northeast",ASI,Asia,Y,Y,1,N,26.106961488382,106.35143683674
CH,China,18578,114197,"Miao, Chuan","Miao, Chuan",200000,2,N,mww,"Hmong Daw",5,4,"Ethnic Religions",5.500,1.500,20,A011,"Southeast Asian Peoples",230,C0138,"Miao / Hmong",1,3,"Asia, Northeast",ASI,Asia,Y,Y,,N,26.997401347706,104.89531164561
CH,China,18579,114198,"Miao, Enshi","Miao, Enshi",680000,1,Y,cmn,"Chinese, Mandarin",5,4,"Ethnic Religions",0.500,0.058,20,A011,"Southeast Asian Peoples",230,C0138,"Miao / Hmong",1,3,"Asia, Northeast",ASI,Asia,Y,Y,14,N,30.192729000143,109.34641999958
CH,China,18580,114199,"Miao, Guiyang Northern","Miao, Guiyang Northern",144000,1,Y,huj,"Miao, Northern Guiyang",1,4,"Ethnic Religions",1.000,0.900,20,A011,"Southeast Asian Peoples",230,C0138,"Miao / Hmong",1,3,"Asia, Northeast",ASI,Asia,Y,Y,3,N,26.728523157357,106.69183910936
CH,China,13703,106593,"Miao, Guiyang Northwestern","Miao, Guiyang Northwestern",10000,1,Y,huj,"Miao, Northern Guiyang",1,4,"Ethnic Religions",0.000,0.000,20,A011,"Southeast Asian Peoples",230,C0138,"Miao / Hmong",1,3,"Asia, Northeast",ASI,Asia,Y,Y,1,Y,26.73292735072,106.68895874237
CH,China,18581,114200,"Miao, Guiyang South Central","Miao, Guiyang South Central",5900,1,Y,hmy,"Miao, Southern Guiyang",1,4,"Ethnic Religions",0.000,0.000,20,A011,"Southeast Asian Peoples",230,C0138,"Miao / Hmong",1,3,"Asia, Northeast",ASI,Asia,Y,Y,1,Y,26.39116400712,106.48865576865
CH,China,18582,114201,"Miao, Guiyang Southern","Miao, Guiyang Southern",48000,4,N,hmy,"Miao, Southern Guiyang",1,4,"Ethnic Religions",10.000,9.000,20,A011,"Southeast Asian Peoples",230,C0138,"Miao / Hmong",1,3,"Asia, Northeast",ASI,Asia,Y,Y,,N,26.390741973166,106.481833225
CH,China,18583,114202,"Miao, Guiyang Southwestern","Miao, Guiyang Southwestern",120000,4,N,hmg,"Miao, Southwestern Guiyang",1,4,"Ethnic Religions",10.000,9.000,20,A011,"Southeast Asian Peoples",230,C0138,"Miao / Hmong",1,3,"Asia, Northeast",ASI,Asia,Y,Y,,N,26.19347,106.00453
CH,China,13704,106595,"Miao, Horned","Miao, Horned",84000,4,N,hrm,"Miao, Horned",3,4,"Ethnic Religions",5.200,5.000,20,A011,"Southeast Asian Peoples",230,C0138,"Miao / Hmong",1,3,"Asia, Northeast",ASI,Asia,Y,Y,,N,27.24898,105.52291
CH,China,18501,114112,"Miao, Hua","Miao, Hua",787000,1,Y,cqd,"Miao, Chuanqiandian Cluster",4,4,"Ethnic Religions",0.200,0.167,20,A011,"Southeast Asian Peoples",230,C0138,"Miao / Hmong",2,3,"Asia, Northeast",ASI,Asia,Y,Y,16,N,26.723769999686,106.68224000028
CH,China,18584,114203,"Miao, Huishui Central","Miao, Huishui Central",68000,1,Y,hmc,"Miao, Central Huishui",1,4,"Ethnic Religions",1.000,0.581,20,A011,"Southeast Asian Peoples",230,C0138,"Miao / Hmong",1,3,"Asia, Northeast",ASI,Asia,Y,Y,1,N,26.05253,106.71374
CH,China,18585,114204,"Miao, Huishui Eastern","Miao, Huishui Eastern",24000,1,Y,hme,"Miao, Eastern Huishui",1,4,"Ethnic Religions",0.500,0.277,20,A011,"Southeast Asian Peoples",230,C0138,"Miao / Hmong",1,3,"Asia, Northeast",ASI,Asia,Y,Y,1,N,25.99717,106.82865
CH,China,18586,114205,"Miao, Huishui Northern","Miao, Huishui Northern",120000,1,Y,hmi,"Miao, Northern Huishui",3,4,"Ethnic Religions",1.000,0.055,20,A011,"Southeast Asian Peoples",230,C0138,"Miao / Hmong",1,3,"Asia, Northeast",ASI,Asia,Y,Y,2,N,26.34653,107.11959
CH,China,18587,114206,"Miao, Huishui Southwestern","Miao, Huishui Southwestern",96000,1,Y,hmh,"Miao, Southwestern Huishui",0,4,"Ethnic Religions",0.000,0.000,20,A011,"Southeast Asian Peoples",230,C0138,"Miao / Hmong",1,3,"Asia, Northeast",ASI,Asia,Y,Y,2,Y,26.04246,106.55641
CH,China,18588,114207,"Miao, Liupanshui","Miao, Liupanshui",62000,1,Y,hsn,"Chinese, Xiang",3,4,"Ethnic Religions",4.000,2.000,20,A011,"Southeast Asian Peoples",230,C0138,"Miao / Hmong",1,3,"Asia, Northeast",ASI,Asia,Y,Y,1,N,26.564814033041,104.89717514762
CH,China,13705,106596,"Miao, Luobohe","Miao, Luobohe",103000,1,Y,hml,"Miao, Luopohe",1,4,"Ethnic Religions",0.000,0.000,20,A011,"Southeast Asian Peoples",230,C0138,"Miao / Hmong",1,3,"Asia, Northeast",ASI,Asia,Y,Y,2,Y,26.75662631875,107.18645007201
CH,China,18589,114208,"Miao, Mashan Central","Miao, Mashan Central",121000,1,Y,hmm,"Miao, Central Mashan",1,4,"Ethnic Religions",1.000,0.250,20,A011,"Southeast Asian Peoples",230,C0138,"Miao / Hmong",1,3,"Asia, Northeast",ASI,Asia,Y,Y,2,N,25.6005,106.37882
CH,China,18590,114209,"Miao, Mashan Northern","Miao, Mashan Northern",60000,1,Y,hmp,"Miao, Northern Mashan",1,4,"Ethnic Religions",0.000,0.000,20,A011,"Southeast Asian Peoples",230,C0138,"Miao / Hmong",1,3,"Asia, Northeast",ASI,Asia,Y,Y,1,Y,25.75423,106.5459
CH,China,18591,114210,"Miao, Mashan Southern","Miao, Mashan Southern",17000,1,Y,hma,"Miao, Southern Mashan",1,4,"Ethnic Religions",0.000,0.000,20,A011,"Southeast Asian Peoples",230,C0138,"Miao / Hmong",1,3,"Asia, Northeast",ASI,Asia,Y,Y,1,Y,25.34257,106.30547
CH,China,18592,114211,"Miao, Mashan Western","Miao, Mashan Western",24000,1,Y,hmw,"Miao, Western Mashan",1,4,"Ethnic Religions",0.000,0.000,20,A011,"Southeast Asian Peoples",230,C0138,"Miao / Hmong",1,3,"Asia, Northeast",ASI,Asia,Y,Y,1,Y,25.651789999909,106.12205000001
CH,China,18593,114212,Micha,Micha,33000,1,Y,yiq,Miqie,0,4,"Ethnic Religions",0.000,0.000,23,A014,"Tibetan-Himalayan Peoples",317,C0229,"Tibeto-Burman, other",1,3,"Asia, Northeast",ASI,Asia,Y,Y,1,Y,25.45908,102.3994
CH,China,18594,114213,Michi,Michi,38000,4,N,cmn,"Chinese, Mandarin",5,4,"Ethnic Religions",4.000,2.693,23,A014,"Tibetan-Himalayan Peoples",317,C0229,"Tibeto-Burman, other",1,3,"Asia, Northeast",ASI,Asia,Y,Y,,N,25.796468563573,102.23884120206
CH,China,18595,114214,Miguba,Miguba,90,1,Y,adi,Adi,5,4,"Ethnic Religions",0.000,0.000,21,A012,"South Asian Peoples",475,A012,"South Asia Tribal - other",1,3,"Asia, Northeast",ASI,Asia,Y,Y,1,Y,28.179814365441,94.796893618845
CH,China,18596,114215,Mili,Mili,31000,1,Y,ymh,Mili,1,4,"Ethnic Religions",0.000,0.000,23,A014,"Tibetan-Himalayan Peoples",317,C0229,"Tibeto-Burman, other",1,3,"Asia, Northeast",ASI,Asia,Y,Y,1,Y,24.1251,100.62697
CH,China,18597,114216,Ming,Ming,16000,1,Y,cmn,"Chinese, Mandarin",5,7,Non-Religious,0.000,0.000,23,A014,"Tibetan-Himalayan Peoples",317,C0229,"Tibeto-Burman, other",1,3,"Asia, Northeast",ASI,Asia,Y,Y,1,Y,31.539760082662,103.68679479365
CH,China,18598,114217,Minglang,Minglang,2000,5,N,ysn,Sani,0,1,Christianity,50.000,26.666,23,A014,"Tibetan-Himalayan Peoples",317,C0229,"Tibeto-Burman, other",1,3,"Asia, Northeast",ASI,Asia,Y,Y,,N,25.845734988279,102.29483991023
CH,China,21978,119000,"Minyag, Eastern","Minyag, Eastern",2000,1,Y,emq,"Minyag, Eastern",1,2,Buddhism,0.000,0.000,23,A014,"Tibetan-Himalayan Peoples",304,C0216,Tibetan,1,3,"Asia, Northeast",ASI,Asia,Y,Y,1,Y,29.66,101.6
CH,China,18599,114218,"Minyag, Western","Minyag, Western",11000,1,Y,wmg,"Minyag, Western",0,2,Buddhism,0.000,0.000,23,A014,"Tibetan-Himalayan Peoples",304,C0216,Tibetan,1,3,"Asia, Northeast",ASI,Asia,Y,Y,1,Y,29.6523,101.55141
CH,China,18600,114219,Mixisu,Mixisu,6700,1,Y,xxx,"Language unknown",0,4,"Ethnic Religions",0.000,0.000,23,A014,"Tibetan-Himalayan Peoples",317,C0229,"Tibeto-Burman, other",1,3,"Asia, Northeast",ASI,Asia,Y,Y,1,Y,28.138644648632,102.19559892745
CH,China,18601,114220,Mjuniang,Mjuniang,56000,1,Y,cov,"Cao Miao",1,4,"Ethnic Religions",0.000,0.000,20,A011,"Southeast Asian Peoples",230,C0138,"Miao / Hmong",1,3,"Asia, Northeast",ASI,Asia,Y,Y,1,Y,26.22409,109.55557
CH,China,19013,114939,Mo,Mo,14000,1,Y,mkg,"Mak (China)",0,4,"Ethnic Religions",0.200,0.161,20,A011,"Southeast Asian Peoples",295,C0207,Tai,1,3,"Asia, Northeast",ASI,Asia,Y,Y,1,N,25.59878,107.71516
CH,China,20605,116882,Moji,Moji,7200,1,Y,ymi,Moji,0,4,"Ethnic Religions",0.000,0.000,23,A014,"Tibetan-Himalayan Peoples",317,C0229,"Tibeto-Burman, other",1,3,"Asia, Northeast",ASI,Asia,Y,Y,1,Y,23.441682,104.674519
CH,China,19197,113801,"Monpa Tawang","Monba, Cona",45000,1,Y,tsj,Tshangla,4,2,Buddhism,0.030,0.020,21,A012,"South Asian Peoples",475,A012,"South Asia Tribal - other",2,3,"Asia, Northeast",ASI,Asia,Y,Y,1,Y,28.02446,91.87806
CH,China,18602,114222,"Monba, Medog","Monba, Medog",8300,1,Y,onp,Sartang,0,2,Buddhism,0.000,0.000,23,A014,"Tibetan-Himalayan Peoples",304,C0216,Tibetan,2,3,"Asia, Northeast",ASI,Asia,Y,Y,1,Y,27.91106,92.1897
CH,China,18604,114224,"Mongol, Alxa","Mongol, Alxa",29000,1,Y,xal,Kalmyk-Oirat,4,6,Islam,0.000,0.000,11,A002,"East Asian Peoples",238,C0146,Mongolian,1,3,"Asia, Northeast",ASI,Asia,Y,Y,1,Y,39.20798725231,101.6752196038
CH,China,18605,114225,"Mongol, Khalka","Mongol, Khalka",68000,1,Y,khk,"Mongolian, Halh",5,2,Buddhism,0.019,0.019,11,A002,"East Asian Peoples",238,C0146,Mongolian,12,3,"Asia, Northeast",ASI,Asia,Y,Y,1,Y,43.647887792987,111.97914702871
CH,China,18606,114226,"Mongol, Khamnigan","Mongol, Khamnigan",2600,1,Y,evn,Evenki,3,4,"Ethnic Religions",0.000,0.000,11,A002,"East Asian Peoples",238,C0146,Mongolian,2,3,"Asia, Northeast",ASI,Asia,Y,Y,1,Y,49.641431128943,119.75357694102
CH,China,18607,114227,"Mongol, Sichuan","Mongol, Sichuan",29000,1,Y,mvf,"Mongolian, Peripheral",5,2,Buddhism,0.000,0.000,11,A002,"East Asian Peoples",238,C0146,Mongolian,1,3,"Asia, Northeast",ASI,Asia,Y,Y,1,Y,27.680674101229,100.84614090478
CH,China,18603,106758,"Mongolian, Peripheral","Mongolian, Peripheral",5581000,1,Y,mvf,"Mongolian, Peripheral",5,2,Buddhism,0.040,0.019,11,A002,"East Asian Peoples",238,C0146,Mongolian,3,3,"Asia, Northeast",ASI,Asia,Y,Y,112,Y,42.281289999734,111.67311999959
CH,China,18609,114229,Mongour,Mongour,51000,1,Y,mjg,Tu,3,2,Buddhism,0.029,0.002,11,A002,"East Asian Peoples",238,C0146,Mongolian,1,3,"Asia, Northeast",ASI,Asia,Y,Y,1,Y,36.8177,102.11749
CH,China,18610,114230,Mosuo,Mosuo,57000,4,N,nru,Narua,1,2,Buddhism,5.000,5.000,23,A014,"Tibetan-Himalayan Peoples",317,C0229,"Tibeto-Burman, other",1,3,"Asia, Northeast",ASI,Asia,Y,Y,,N,27.676266963649,100.76786905711
CH,China,18611,114231,Mozhihei,Mozhihei,6700,1,Y,tjs,"Tujia, Southern",0,4,"Ethnic Religions",0.000,0.000,23,A014,"Tibetan-Himalayan Peoples",317,C0229,"Tibeto-Burman, other",1,3,"Asia, Northeast",ASI,Asia,Y,Y,1,Y,28.25042,110.0006
CH,China,21066,117896,"Muak Sa-aak","Muak Sa-aak",1000,1,Y,ukk,"Muak Sa-aak",3,2,Buddhism,0.000,0.000,20,A011,"Southeast Asian Peoples",239,C0147,Mon-Khmer,2,3,"Asia, Northeast",ASI,Asia,Y,N,1,Y,22.003533,100.766798
CH,China,18612,114232,Muda,Muda,3100,1,Y,ymd,Muda,1,4,"Ethnic Religions",0.000,0.000,23,A014,"Tibetan-Himalayan Peoples",185,C0089,Hani,1,3,"Asia, Northeast",ASI,Asia,Y,Y,1,Y,22.19162,100.91354
CH,China,20606,116884,"Muji, Northern","Muji, Northern",15000,1,Y,ymx,"Muji, Northern",0,4,"Ethnic Religions",0.070,0.070,23,A014,"Tibetan-Himalayan Peoples",317,C0229,"Tibeto-Burman, other",1,3,"Asia, Northeast",ASI,Asia,Y,Y,1,Y,23.179338,103.534171
CH,China,20626,116885,"Muji, Qila","Muji, Qila",1600,1,Y,ymq,"Muji, Qila",0,4,"Ethnic Religions",3.000,1.000,23,A014,"Tibetan-Himalayan Peoples",317,C0229,"Tibeto-Burman, other",1,3,"Asia, Northeast",ASI,Asia,Y,Y,1,N,22.782752,103.225716
CH,China,18613,114233,"Muji, Southern","Muji, Southern",29000,1,Y,ymc,"Muji, Southern",1,4,"Ethnic Religions",0.100,0.037,23,A014,"Tibetan-Himalayan Peoples",317,C0229,"Tibeto-Burman, other",1,3,"Asia, Northeast",ASI,Asia,Y,Y,1,Y,23.372293000322,103.39133600006
CH,China,18614,114234,Mulao,Mulao,227000,1,Y,mlm,Mulam,1,4,"Ethnic Religions",0.800,0.778,20,A011,"Southeast Asian Peoples",295,C0207,Tai,1,3,"Asia, Northeast",ASI,Asia,Y,Y,5,N,24.815149999873,108.92801999992
CH,China,18615,114235,"Mulao Jia","Mulao Jia",40000,1,Y,cmn,"Chinese, Mandarin",5,4,"Ethnic Religions",0.000,0.000,20,A011,"Southeast Asian Peoples",295,C0207,Tai,1,3,"Asia, Northeast",ASI,Asia,Y,Y,1,Y,26.480167522713,107.54022936879
CH,China,18616,114236,Muzi,Muzi,11000,1,Y,ymz,Muzi,0,4,"Ethnic Religions",0.000,0.000,23,A014,"Tibetan-Himalayan Peoples",317,C0229,"Tibeto-Burman, other",1,3,"Asia, Northeast",ASI,Asia,Y,Y,1,Y,23.36733,103.18294
CH,China,18617,114237,Naheng,Naheng,1500,1,Y,nxq,Naxi,4,4,"Ethnic Religions",0.000,0.000,23,A014,"Tibetan-Himalayan Peoples",317,C0229,"Tibeto-Burman, other",1,3,"Asia, Northeast",ASI,Asia,Y,Y,1,Y,26.888399943802,100.92957547613
CH,China,18618,114238,Naisu,Naisu,64000,4,N,ywq,"Yi, Wuding-Luquan",5,4,"Ethnic Religions",5.000,4.065,23,A014,"Tibetan-Himalayan Peoples",317,C0229,"Tibeto-Burman, other",1,3,"Asia, Northeast",ASI,Asia,Y,Y,,N,25.145195183311,102.07752363731
CH,China,18619,114239,Naju,Naju,1900,1,Y,nxq,Naxi,4,2,Buddhism,0.000,0.000,23,A014,"Tibetan-Himalayan Peoples",317,C0229,"Tibeto-Burman, other",1,3,"Asia, Northeast",ASI,Asia,Y,Y,1,Y,27.678055949922,101.46271962041
CH,China,18620,114240,Naluo,Naluo,49000,5,N,ylo,Naluo,0,4,"Ethnic Religions",32.000,26.000,23,A014,"Tibetan-Himalayan Peoples",317,C0229,"Tibeto-Burman, other",1,3,"Asia, Northeast",ASI,Asia,Y,Y,,N,26.70587,103.1208
CH,China,18621,114241,Namuyi,Namuyi,8800,1,Y,nmy,Namuyi,1,2,Buddhism,0.000,0.000,23,A014,"Tibetan-Himalayan Peoples",304,C0216,Tibetan,1,3,"Asia, Northeast",ASI,Asia,Y,Y,1,Y,28.58291,101.8828
CH,China,18622,114242,Nanjingren,Nanjingren,163000,4,N,cmn,"Chinese, Mandarin",5,4,"Ethnic Religions",7.500,6.800,23,A014,"Tibetan-Himalayan Peoples",317,C0229,"Tibeto-Burman, other",1,3,"Asia, Northeast",ASI,Asia,Y,Y,,N,27.336346000168,105.5169750001
CH,China,18623,114243,Naru,Naru,15000,1,Y,xxx,"Language unknown",0,4,"Ethnic Religions",0.000,0.000,23,A014,"Tibetan-Himalayan Peoples",317,C0229,"Tibeto-Burman, other",1,3,"Asia, Northeast",ASI,Asia,Y,Y,1,Y,26.299758220565,100.61580609897
CH,China,18624,114244,Naruo,Naruo,16000,1,Y,xxx,"Language unknown",0,4,"Ethnic Religions",0.000,0.000,23,A014,"Tibetan-Himalayan Peoples",317,C0229,"Tibeto-Burman, other",1,3,"Asia, Northeast",ASI,Asia,Y,Y,1,Y,26.629086407811,100.70483708037
CH,China,18625,114245,"Nasu, Eastern","Nasu, Eastern",274000,5,N,ywq,"Yi, Wuding-Luquan",5,4,"Ethnic Religions",35.000,29.020,23,A014,"Tibetan-Himalayan Peoples",317,C0229,"Tibeto-Burman, other",1,3,"Asia, Northeast",ASI,Asia,Y,Y,,N,26.07376,102.41851
CH,China,18626,114246,"Nasu, Jinghong","Nasu, Jinghong",24000,1,Y,xxx,"Language unknown",0,4,"Ethnic Religions",0.700,0.543,23,A014,"Tibetan-Himalayan Peoples",317,C0229,"Tibeto-Burman, other",1,3,"Asia, Northeast",ASI,Asia,Y,Y,1,N,21.996374708926,100.73432253626
CH,China,18627,114247,"Nasu, Panxian","Nasu, Panxian",376000,1,Y,yig,"Nasu, Wusa",4,4,"Ethnic Religions",2.000,1.723,23,A014,"Tibetan-Himalayan Peoples",317,C0229,"Tibeto-Burman, other",1,3,"Asia, Northeast",ASI,Asia,Y,Y,8,N,25.732086000269,104.65137700015
CH,China,18628,114248,"Nasu, Southern","Nasu, Southern",137000,1,Y,yiv,"Nisu, Northern",3,4,"Ethnic Religions",0.120,0.095,23,A014,"Tibetan-Himalayan Peoples",317,C0229,"Tibeto-Burman, other",1,3,"Asia, Northeast",ASI,Asia,Y,Y,3,N,23.990432380675,102.69963959888
CH,China,18629,114250,"Nasu, Wusa","Nasu, Wusa",323000,5,N,ywu,"Nasu, Wumeng",1,4,"Ethnic Religions",30.000,24.144,23,A014,"Tibetan-Himalayan Peoples",317,C0229,"Tibeto-Burman, other",1,3,"Asia, Northeast",ASI,Asia,Y,Y,,N,26.862220920959,104.29142821114
CH,China,18630,114251,Naxi,Naxi,337000,1,Y,nxq,Naxi,4,4,"Ethnic Religions",0.800,0.073,23,A014,"Tibetan-Himalayan Peoples",317,C0229,"Tibeto-Burman, other",1,3,"Asia, Northeast",ASI,Asia,Y,Y,7,N,26.91081985805,100.07723753189
CH,China,18631,114252,"Naxi, Northern","Naxi, Northern",3300,1,Y,nxq,Naxi,4,2,Buddhism,4.000,0.200,23,A014,"Tibetan-Himalayan Peoples",317,C0229,"Tibeto-Burman, other",1,3,"Asia, Northeast",ASI,Asia,Y,Y,1,N,28.763900032361,98.679060221252
CH,China,18632,114253,Naza,Naza,1700,1,Y,xxx,"Language unknown",0,4,"Ethnic Religions",0.000,0.000,23,A014,"Tibetan-Himalayan Peoples",317,C0229,"Tibeto-Burman, other",1,3,"Asia, Northeast",ASI,Asia,Y,Y,1,Y,26.679525231904,100.73892361264
CH,China,18633,114254,Neisu,Neisu,22000,4,N,hni,Hani,3,4,"Ethnic Religions",3.000,2.395,23,A014,"Tibetan-Himalayan Peoples",185,C0089,Hani,1,3,"Asia, Northeast",ASI,Asia,Y,Y,,N,21.9519999999,100.0930900003
CH,China,18744,114380,"Neisu, Da Hei","Neisu, Da Hei",8400,1,Y,yig,"Nasu, Wusa",4,4,"Ethnic Religions",0.000,0.000,23,A014,"Tibetan-Himalayan Peoples",317,C0229,"Tibeto-Burman, other",1,3,"Asia, Northeast",ASI,Asia,Y,Y,1,Y,24.638942714335,103.83055327172
CH,China,18634,114255,"Neisu, Xiao Hei","Neisu, Xiao Hei",9800,1,Y,yig,"Nasu, Wusa",4,4,"Ethnic Religions",0.150,0.131,23,A014,"Tibetan-Himalayan Peoples",317,C0229,"Tibeto-Burman, other",1,3,"Asia, Northeast",ASI,Asia,Y,Y,1,N,24.405120245003,103.43810578895
CH,China,18635,114256,"Niesu, Central","Niesu, Central",16000,1,Y,nsv,"Nisu, Southwestern",1,4,"Ethnic Religions",0.000,0.000,23,A014,"Tibetan-Himalayan Peoples",317,C0229,"Tibeto-Burman, other",1,3,"Asia, Northeast",ASI,Asia,Y,Y,1,Y,22.65784,101.59721
CH,China,18636,114257,"Nisu, Jianshui","Nisu, Jianshui",231000,1,Y,nos,"Nisu, Eastern",1,4,"Ethnic Religions",1.000,0.200,23,A014,"Tibetan-Himalayan Peoples",317,C0229,"Tibeto-Burman, other",1,3,"Asia, Northeast",ASI,Asia,Y,Y,5,N,23.55,102.53333
CH,China,20578,116896,"Nisu, Northwestern","Nisu, Northwestern",27000,1,Y,nsf,"Nisu, Northwestern",1,4,"Ethnic Religions",1.000,0.500,23,A014,"Tibetan-Himalayan Peoples",317,C0229,"Tibeto-Burman, other",1,3,"Asia, Northeast",ASI,Asia,Y,Y,1,N,25.60605,100.213104
CH,China,18637,114258,"Nisu, Xinping","Nisu, Xinping",257000,1,Y,yiv,"Nisu, Northern",3,4,"Ethnic Religions",1.000,0.506,23,A014,"Tibetan-Himalayan Peoples",317,C0229,"Tibeto-Burman, other",1,3,"Asia, Northeast",ASI,Asia,Y,Y,5,N,24.16434,101.84522
CH,China,18638,114259,"Nisu, Yuanyang","Nisu, Yuanyang",266000,1,Y,nsd,"Nisu, Southern",3,4,"Ethnic Religions",1.500,0.720,23,A014,"Tibetan-Himalayan Peoples",317,C0229,"Tibeto-Burman, other",1,3,"Asia, Northeast",ASI,Asia,Y,Y,5,N,23.991231432721,102.69436267217
CH,China,18639,114260,"Nosu, Butuo","Nosu, Butuo",274000,1,Y,iii,Nuosu,4,4,"Ethnic Religions",0.500,0.050,23,A014,"Tibetan-Himalayan Peoples",247,C0155,Nosu,1,3,"Asia, Northeast",ASI,Asia,Y,Y,5,N,27.604529000013,102.87518600003
CH,China,18640,114261,"Nosu, Mangbu","Nosu, Mangbu",86000,1,Y,yig,"Nasu, Wusa",4,4,"Ethnic Religions",2.000,1.497,23,A014,"Tibetan-Himalayan Peoples",247,C0155,Nosu,1,3,"Asia, Northeast",ASI,Asia,Y,Y,2,N,27.471058077268,104.91350389159
CH,China,18641,114262,"Nosu, Shengzha","Nosu, Shengzha",1327000,1,Y,iii,Nuosu,4,4,"Ethnic Religions",2.000,1.400,23,A014,"Tibetan-Himalayan Peoples",247,C0155,Nosu,1,3,"Asia, Northeast",ASI,Asia,Y,Y,27,N,28.296008999616,102.2526240004
CH,China,18642,114263,"Nosu, Shuixi","Nosu, Shuixi",306000,4,N,yig,"Nasu, Wusa",4,4,"Ethnic Religions",3.000,2.400,23,A014,"Tibetan-Himalayan Peoples",247,C0155,Nosu,1,3,"Asia, Northeast",ASI,Asia,Y,Y,,N,27.6319350003,105.48015099987
CH,China,18643,114264,"Nosu, Tianba","Nosu, Tianba",110000,1,Y,iii,Nuosu,4,4,"Ethnic Religions",0.000,0.000,23,A014,"Tibetan-Himalayan Peoples",247,C0155,Nosu,1,3,"Asia, Northeast",ASI,Asia,Y,Y,2,Y,28.971889466026,102.77145475263
CH,China,18644,114265,"Nosu, Xiaoliangshan","Nosu, Xiaoliangshan",545000,1,Y,xxx,"Language unknown",0,4,"Ethnic Religions",0.100,0.050,23,A014,"Tibetan-Himalayan Peoples",247,C0155,Nosu,1,3,"Asia, Northeast",ASI,Asia,Y,Y,11,Y,27.242753999997,100.86306499995
CH,China,18645,114266,"Nosu, Yinuo","Nosu, Yinuo",668000,1,Y,iii,Nuosu,4,4,"Ethnic Religions",0.050,0.002,23,A014,"Tibetan-Himalayan Peoples",247,C0155,Nosu,1,3,"Asia, Northeast",ASI,Asia,Y,Y,13,Y,28.043781999939,102.44426999966
CH,China,18646,114267,Nu,Nu,13000,5,N,nuf,Nusu,3,4,"Ethnic Religions",17.000,11.000,23,A014,"Tibetan-Himalayan Peoples",185,C0089,Hani,2,3,"Asia, Northeast",ASI,Asia,Y,Y,,N,26.900337073397,98.866033647135
CH,China,18647,114268,Nubra,Nubra,700,1,Y,lbj,Ladakhi,4,6,Islam,0.000,0.000,23,A014,"Tibetan-Himalayan Peoples",317,C0229,"Tibeto-Burman, other",1,3,"Asia, Northeast",ASI,Asia,Y,Y,1,Y,35.1228610462,79.618284753439
CH,China,14061,107503,Numao,Numao,2300,1,Y,bwx,"Bunu, Bu-Nao",0,4,"Ethnic Religions",0.000,0.000,20,A011,"Southeast Asian Peoples",319,C0232,Yao-Mien,1,3,"Asia, Northeast",ASI,Asia,Y,Y,1,Y,25.370640608078,107.83113224816
CH,China,14068,107515,Nunu,Nunu,63000,1,Y,bwx,"Bunu, Bu-Nao",0,4,"Ethnic Religions",0.000,0.000,20,A011,"Southeast Asian Peoples",319,C0232,Yao-Mien,1,3,"Asia, Northeast",ASI,Asia,Y,Y,1,Y,24.329400776725,106.56296109258
CH,China,18648,114269,Olot,Olot,3200,1,Y,xal,Kalmyk-Oirat,4,2,Buddhism,0.000,0.000,11,A002,"East Asian Peoples",238,C0146,Mongolian,1,3,"Asia, Northeast",ASI,Asia,Y,Y,1,Y,47.878977121097,124.33623409972
CH,China,18649,114270,Ongkor,Ongkor,30,1,Y,evn,Evenki,3,4,"Ethnic Religions",0.000,0.000,24,A015,"Turkic Peoples",107,C0009,Altaic,1,3,"Asia, Northeast",ASI,Asia,Y,Y,1,Y,43.988117511714,81.230091211041
CH,China,18650,114271,Oroqen,Oroqen,11000,1,Y,evn,Evenki,3,4,"Ethnic Religions",0.500,0.334,24,A015,"Turkic Peoples",107,C0009,Altaic,1,3,"Asia, Northeast",ASI,Asia,Y,Y,1,N,50.65222,125.33961
CH,China,19580,115544,"Pa Di","Pa Di",1100,1,Y,pdi,"Pa Di",1,7,Non-Religious,4.000,1.000,20,A011,"Southeast Asian Peoples",239,C0147,Mon-Khmer,2,3,"Asia, Northeast",ASI,Asia,Y,Y,1,N,22.5187,103.949048
CH,China,18891,114839,"Pa Hng","Pa Hng",48000,1,Y,pha,Pa-Hng,0,4,"Ethnic Religions",0.000,0.000,20,A011,"Southeast Asian Peoples",319,C0232,Yao-Mien,2,3,"Asia, Northeast",ASI,Asia,Y,Y,1,Y,25.954470838758,108.95843094004
CH,China,14262,107762,Paiwanese,Paiwan,700,1,Y,pwn,Paiwan,5,4,"Ethnic Religions",0.000,0.000,11,A002,"East Asian Peoples",298,C0210,"Taiwan Indigenous",2,3,"Asia, Northeast",ASI,Asia,Y,Y,1,Y,24.521880328814,117.64893370503
CH,China,14281,107801,Palyu,Palyu,16000,2,N,ply,Bolyu,0,4,"Ethnic Religions",6.300,0.500,20,A011,"Southeast Asian Peoples",239,C0147,Mon-Khmer,1,3,"Asia, Northeast",ASI,Asia,Y,Y,,N,24.70018,104.94887
CH,China,18651,114273,Paxi,Paxi,1500,1,Y,khb,Lu,4,6,Islam,0.000,0.000,20,A011,"Southeast Asian Peoples",295,C0207,Tai,1,3,"Asia, Northeast",ASI,Asia,Y,Y,1,Y,22.054446223115,100.19569422001
CH,China,18652,114274,Pengzi,Pengzi,300,1,Y,yik,"Lalo, Dongshanba",0,4,"Ethnic Religions",0.000,0.000,23,A014,"Tibetan-Himalayan Peoples",317,C0229,"Tibeto-Burman, other",1,3,"Asia, Northeast",ASI,Asia,Y,Y,1,Y,23.937909781411,99.220977609129
CH,China,20607,116900,Phala,Phala,13000,1,Y,ypa,Phala,1,4,"Ethnic Religions",0.500,0.300,23,A014,"Tibetan-Himalayan Peoples",317,C0229,"Tibeto-Burman, other",1,3,"Asia, Northeast",ASI,Asia,Y,Y,1,N,23.221372,102.828157
CH,China,18892,114840,Phana,Phana,5200,1,Y,phq,Phana',1,4,"Ethnic Religions",0.094,0.094,23,A014,"Tibetan-Himalayan Peoples",185,C0089,Hani,2,3,"Asia, Northeast",ASI,Asia,Y,Y,1,Y,21.246491947845,101.27182033094
CH,China,16151,111251,Phola,Phola,14000,1,Y,ypg,Phola,1,4,"Ethnic Religions",0.150,0.098,23,A014,"Tibetan-Himalayan Peoples",317,C0229,"Tibeto-Burman, other",1,3,"Asia, Northeast",ASI,Asia,Y,Y,1,N,23.46537,102.22179
CH,China,20608,116901,"Phola, Alo","Phola, Alo",500,1,Y,ypo,"Phola, Alo",1,4,"Ethnic Religions",0.000,0.000,23,A014,"Tibetan-Himalayan Peoples",317,C0229,"Tibeto-Burman, other",1,3,"Asia, Northeast",ASI,Asia,Y,Y,1,Y,23.103412,103.016335
CH,China,21077,117904,Pholo,Pholo,35000,1,Y,yip,Pholo,1,4,"Ethnic Religions",0.000,0.000,23,A014,"Tibetan-Himalayan Peoples",317,C0229,"Tibeto-Burman, other",1,3,"Asia, Northeast",ASI,Asia,Y,Y,1,Y,23.795048,104.680461
CH,China,20627,116902,"Phowa, Ani","Phowa, Ani",10000,1,Y,ypn,"Phowa, Ani",1,4,"Ethnic Religions",3.000,1.000,23,A014,"Tibetan-Himalayan Peoples",317,C0229,"Tibeto-Burman, other",1,3,"Asia, Northeast",ASI,Asia,Y,Y,1,N,23.482803,103.470213
CH,China,18657,114283,"Phowa, Hlepho","Phowa, Hlepho",51000,4,N,yhl,"Phowa, Hlepho",1,4,"Ethnic Religions",15.000,10.000,23,A014,"Tibetan-Himalayan Peoples",317,C0229,"Tibeto-Burman, other",1,3,"Asia, Northeast",ASI,Asia,Y,Y,,N,23.57995,103.71347
CH,China,20609,116903,"Phowa, Labo","Phowa, Labo",22000,1,Y,ypb,"Phowa, Labo",1,4,"Ethnic Religions",0.400,0.200,23,A014,"Tibetan-Himalayan Peoples",317,C0229,"Tibeto-Burman, other",1,3,"Asia, Northeast",ASI,Asia,Y,Y,1,N,23.71478,103.453264
CH,China,19622,115224,Phula,Phula,7200,1,Y,phh,Phula,1,4,"Ethnic Religions",1.000,0.020,20,A011,"Southeast Asian Peoples",230,C0138,"Miao / Hmong",2,3,"Asia, Northeast",ASI,Asia,Y,N,1,N,28.264,108.954
CH,China,20610,116904,Phuma,Phuma,8800,1,Y,ypm,Phuma,1,4,"Ethnic Religions",0.000,0.000,23,A014,"Tibetan-Himalayan Peoples",317,C0229,"Tibeto-Burman, other",1,3,"Asia, Northeast",ASI,Asia,Y,Y,1,Y,22.979741,103.796248
CH,China,20611,116905,Phupa,Phupa,3300,1,Y,ypp,Phupa,1,4,"Ethnic Religions",0.000,0.000,23,A014,"Tibetan-Himalayan Peoples",317,C0229,"Tibeto-Burman, other",1,3,"Asia, Northeast",ASI,Asia,Y,Y,1,Y,23.179151,103.533706
CH,China,20628,116906,Phupha,Phupha,1600,1,Y,yph,Phupha,1,4,"Ethnic Religions",3.000,1.000,23,A014,"Tibetan-Himalayan Peoples",317,C0229,"Tibeto-Burman, other",1,3,"Asia, Northeast",ASI,Asia,Y,Y,1,N,23.365912,103.149813
CH,China,20612,116907,Phuza,Phuza,6600,1,Y,ypz,Phuza,1,4,"Ethnic Religions",0.400,0.200,23,A014,"Tibetan-Himalayan Peoples",317,C0229,"Tibeto-Burman, other",1,3,"Asia, Northeast",ASI,Asia,Y,Y,1,N,23.461613,103.163214
CH,China,18653,114275,Pingdi,Pingdi,1340000,1,Y,hsn,"Chinese, Xiang",3,4,"Ethnic Religions",0.100,0.035,20,A011,"Southeast Asian Peoples",319,C0232,Yao-Mien,1,3,"Asia, Northeast",ASI,Asia,Y,Y,27,Y,25.189024000257,111.57243899986
CH,China,21839,118455,"Pinghua, Northern","Pinghua, Northern",1749000,4,N,cnp,"Pinghua, Northern",0,7,Non-Religious,5.000,3.600,11,A002,"East Asian Peoples",161,C0065,Chinese,1,3,"Asia, Northeast",ASI,Asia,Y,Y,,N,25.29,110.3
CH,China,18480,114088,"Pinghua, Southern","Pinghua, Southern",2356000,4,N,csp,"Pinghua, Southern",1,7,Non-Religious,5.000,3.600,11,A002,"East Asian Peoples",161,C0065,Chinese,1,3,"Asia, Northeast",ASI,Asia,Y,Y,,N,25.935341113505,106.27820739536
CH,China,18654,114276,Poluo,Poluo,33000,1,Y,yip,Pholo,1,4,"Ethnic Religions",0.100,0.042,23,A014,"Tibetan-Himalayan Peoples",317,C0229,"Tibeto-Burman, other",1,3,"Asia, Northeast",ASI,Asia,Y,Y,1,Y,23.80687,104.14317
CH,China,18655,114277,Popei,Popei,6600,1,Y,ycl,Lolopo,4,4,"Ethnic Religions",0.000,0.000,23,A014,"Tibetan-Himalayan Peoples",317,C0229,"Tibeto-Burman, other",1,3,"Asia, Northeast",ASI,Asia,Y,Y,1,Y,26.311802605106,101.21259279402
CH,China,14474,108172,Pumi,Pumi,50000,1,Y,pmj,"Pumi, Southern",1,4,"Ethnic Religions",0.100,0.079,23,A014,"Tibetan-Himalayan Peoples",317,C0229,"Tibeto-Burman, other",1,3,"Asia, Northeast",ASI,Asia,Y,Y,1,Y,27.84076,100.62232
CH,China,17903,113383,Purig-Pa,Purik,800,1,Y,prx,Purig,4,6,Islam,0.000,0.000,21,A012,"South Asian Peoples",475,A012,"South Asia Tribal - other",2,3,"Asia, Northeast",ASI,Asia,Y,N,1,Y,32.608957301238,79.557711803757
CH,China,18186,113699,Puroik,Puroik,500,1,Y,suv,Puroik,3,4,"Ethnic Religions",0.000,0.000,21,A012,"South Asian Peoples",475,A012,"South Asia Tribal - other",2,3,"Asia, Northeast",ASI,Asia,Y,Y,1,Y,28.454619069015,96.836354905754
CH,China,18656,114282,Pusha,Pusha,7000,1,Y,cmn,"Chinese, Mandarin",5,4,"Ethnic Religions",0.000,0.000,20,A011,"Southeast Asian Peoples",322,C0235,Zhuang,1,3,"Asia, Northeast",ASI,Asia,Y,Y,1,Y,23.429194198853,106.28806583087
CH,China,12993,105647,"Qabiao, Pubiao","Qabiao, Pubiao",500,1,Y,laq,Qabiao,1,4,"Ethnic Religions",0.000,0.000,20,A011,"Southeast Asian Peoples",295,C0207,Tai,2,3,"Asia, Northeast",ASI,Asia,Y,Y,1,Y,23.24002,104.81094
CH,China,18658,114284,Qanu,Qanu,15000,1,Y,hea,"Miao, Northern Qiandong",4,4,"Ethnic Religions",0.000,0.000,20,A011,"Southeast Asian Peoples",230,C0138,"Miao / Hmong",1,3,"Asia, Northeast",ASI,Asia,Y,Y,1,Y,26.50492861956,107.92916599541
CH,China,18659,114285,"Qiang, Cimulin","Qiang, Cimulin",17000,1,Y,cng,"Qiang, Northern",0,2,Buddhism,0.010,0.010,23,A014,"Tibetan-Himalayan Peoples",317,C0229,"Tibeto-Burman, other",1,3,"Asia, Northeast",ASI,Asia,Y,Y,1,Y,32.188413885293,103.14630380518
CH,China,18660,114286,"Qiang, Dajishan","Qiang, Dajishan",12000,1,Y,qxs,"Qiang, Southern",3,4,"Ethnic Religions",0.000,0.000,23,A014,"Tibetan-Himalayan Peoples",317,C0229,"Tibeto-Burman, other",1,3,"Asia, Northeast",ASI,Asia,Y,Y,1,Y,31.555440077298,103.32033417558
CH,China,18661,114287,"Qiang, Heihu","Qiang, Heihu",27000,1,Y,qxs,"Qiang, Southern",3,4,"Ethnic Religions",0.800,0.728,23,A014,"Tibetan-Himalayan Peoples",317,C0229,"Tibeto-Burman, other",1,3,"Asia, Northeast",ASI,Asia,Y,Y,1,N,31.83635580008,103.67011250909
CH,China,18662,114288,"Qiang, Jiaochang","Qiang, Jiaochang",32000,1,Y,qxs,"Qiang, Southern",3,4,"Ethnic Religions",0.700,0.300,23,A014,"Tibetan-Himalayan Peoples",317,C0229,"Tibeto-Burman, other",1,3,"Asia, Northeast",ASI,Asia,Y,Y,1,N,32.046222798743,103.68760142527
CH,China,18663,114289,"Qiang, Longxi","Qiang, Longxi",5700,1,Y,qxs,"Qiang, Southern",3,4,"Ethnic Religions",0.000,0.000,23,A014,"Tibetan-Himalayan Peoples",317,C0229,"Tibeto-Burman, other",1,3,"Asia, Northeast",ASI,Asia,Y,Y,1,Y,31.53737860324,103.52166642097
CH,China,18664,114290,"Qiang, Luhua","Qiang, Luhua",24000,1,Y,cng,"Qiang, Northern",0,2,Buddhism,0.010,0.010,23,A014,"Tibetan-Himalayan Peoples",317,C0229,"Tibeto-Burman, other",1,3,"Asia, Northeast",ASI,Asia,Y,Y,1,Y,32.088661522811,103.19576729832
CH,China,18665,114291,"Qiang, Mawo","Qiang, Mawo",20000,1,Y,cng,"Qiang, Northern",0,2,Buddhism,0.010,0.010,23,A014,"Tibetan-Himalayan Peoples",317,C0229,"Tibeto-Burman, other",1,3,"Asia, Northeast",ASI,Asia,Y,Y,1,Y,32.027385028096,103.1774814641
CH,China,18666,114292,"Qiang, Mianchi","Qiang, Mianchi",27000,1,Y,qxs,"Qiang, Southern",3,4,"Ethnic Religions",1.000,0.742,23,A014,"Tibetan-Himalayan Peoples",317,C0229,"Tibeto-Burman, other",1,3,"Asia, Northeast",ASI,Asia,Y,Y,1,N,31.446461310041,103.55264340967
CH,China,18667,114293,"Qiang, Sanlong","Qiang, Sanlong",25000,1,Y,qxs,"Qiang, Southern",3,4,"Ethnic Religions",0.000,0.000,23,A014,"Tibetan-Himalayan Peoples",317,C0229,"Tibeto-Burman, other",1,3,"Asia, Northeast",ASI,Asia,Y,Y,1,Y,31.78201176623,103.5695863906
CH,China,18668,114294,"Qiang, Taoping","Qiang, Taoping",8400,1,Y,qxs,"Qiang, Southern",3,4,"Ethnic Religions",0.000,0.000,23,A014,"Tibetan-Himalayan Peoples",317,C0229,"Tibeto-Burman, other",1,3,"Asia, Northeast",ASI,Asia,Y,Y,1,Y,31.563510319046,103.4205371119
CH,China,18669,114295,"Qiang, Yadu","Qiang, Yadu",39000,1,Y,cng,"Qiang, Northern",0,2,Buddhism,0.010,0.010,23,A014,"Tibetan-Himalayan Peoples",317,C0229,"Tibeto-Burman, other",1,3,"Asia, Northeast",ASI,Asia,Y,Y,1,Y,31.929528532716,103.42993555158
CH,China,18670,114296,Qiangyi,Qiangyi,13000,1,Y,qxs,"Qiang, Southern",3,4,"Ethnic Religions",0.000,0.000,23,A014,"Tibetan-Himalayan Peoples",317,C0229,"Tibeto-Burman, other",1,3,"Asia, Northeast",ASI,Asia,Y,Y,1,Y,25.512617698248,100.58780415304
CH,China,18671,114297,Qixingmin,Qixingmin,6000,1,Y,cmn,"Chinese, Mandarin",5,2,Buddhism,0.000,0.000,23,A014,"Tibetan-Himalayan Peoples",317,C0229,"Tibeto-Burman, other",1,3,"Asia, Northeast",ASI,Asia,Y,Y,1,Y,26.304778051866,104.95318419529
CH,China,18672,114298,Queyu,Queyu,11000,1,Y,qvy,Queyu,0,2,Buddhism,0.000,0.000,23,A014,"Tibetan-Himalayan Peoples",304,C0216,Tibetan,1,3,"Asia, Northeast",ASI,Asia,Y,Y,1,Y,30.32428,100.81981
CH,China,18673,114299,Rao,Rao,13000,1,Y,tct,T'en,1,4,"Ethnic Religions",0.000,0.000,20,A011,"Southeast Asian Peoples",150,C0054,Bouyei,1,3,"Asia, Northeast",ASI,Asia,Y,Y,1,Y,26.462498260986,107.52825020758
CH,China,14528,108326,Rawang,Rawang,700,5,N,raw,Rawang,5,1,Christianity,60.000,50.000,23,A014,"Tibetan-Himalayan Peoples",234,C0142,Miri-Kachin,2,3,"Asia, Northeast",ASI,Asia,Y,N,,N,28.210798203374,98.214605897344
CH,China,14554,108371,"Riang Lang","Riang Lang",2000,1,Y,ril,"Riang Lang",3,4,"Ethnic Religions",0.000,0.000,20,A011,"Southeast Asian Peoples",239,C0147,Mon-Khmer,2,3,"Asia, Northeast",ASI,Asia,Y,N,1,Y,24.1182,98.98593
CH,China,14598,108452,Russian,Russian,23000,3,N,rus,Russian,5,1,Christianity,55.000,0.500,12,A003,"Eurasian Peoples",283,C0194,"Slav, Eastern",70,3,"Asia, Northeast",ASI,Asia,Y,N,,N,43.78809,87.63117
CH,China,14658,108543,Salar,Salar,149000,1,Y,slr,Salar,1,6,Islam,0.010,0.008,24,A015,"Turkic Peoples",310,C0222,Turkmen,1,3,"Asia, Northeast",ASI,Asia,Y,Y,3,Y,35.87885,102.50406
CH,China,18674,114300,"Samadu, Eastern","Samadu, Eastern",800,1,Y,cmn,"Chinese, Mandarin",5,4,"Ethnic Religions",2.000,1.626,23,A014,"Tibetan-Himalayan Peoples",317,C0229,"Tibeto-Burman, other",1,3,"Asia, Northeast",ASI,Asia,Y,Y,1,N,24.961752746692,102.7861455263
CH,China,18675,114301,"Samadu, Western","Samadu, Western",10000,1,Y,cmn,"Chinese, Mandarin",5,4,"Ethnic Religions",0.000,0.000,23,A014,"Tibetan-Himalayan Peoples",317,C0229,"Tibeto-Burman, other",1,3,"Asia, Northeast",ASI,Asia,Y,Y,1,Y,24.079399727715,98.970851291754
CH,China,18676,114302,Saman,Saman,3300,1,Y,cmn,"Chinese, Mandarin",5,4,"Ethnic Religions",2.000,1.000,24,A015,"Turkic Peoples",107,C0009,Altaic,1,3,"Asia, Northeast",ASI,Asia,Y,Y,1,N,47.647404982154,124.67414570976
CH,China,20613,116910,Samatao,Samatao,3000,1,Y,ysd,Samatao,0,4,"Ethnic Religions",0.000,0.000,23,A014,"Tibetan-Himalayan Peoples",317,C0229,"Tibeto-Burman, other",1,3,"Asia, Northeast",ASI,Asia,Y,Y,1,Y,24.959902,102.791547
CH,China,14673,108575,Samei,Samei,22000,1,Y,smh,Samei,1,4,"Ethnic Religions",1.200,1.100,23,A014,"Tibetan-Himalayan Peoples",317,C0229,"Tibeto-Burman, other",1,3,"Asia, Northeast",ASI,Asia,Y,Y,1,N,24.99538,102.77235
CH,China,14680,108587,Samtao,Samtao,200,1,Y,stu,Samtao,0,2,Buddhism,0.000,0.000,20,A011,"Southeast Asian Peoples",239,C0147,Mon-Khmer,3,3,"Asia, Northeast",ASI,Asia,Y,N,1,Y,22.328159999584,99.588390000398
CH,China,13474,106205,"San Chay","San Chay",51000,1,Y,mlc,"Cao Lan",3,4,"Ethnic Religions",0.000,0.000,20,A011,"Southeast Asian Peoples",295,C0207,Tai,2,3,"Asia, Northeast",ASI,Asia,Y,N,1,Y,24.8840000003,105.30100000035
CH,China,18677,114303,Sanda,Sanda,1500,4,N,xxx,"Language unknown",0,4,"Ethnic Religions",2.100,2.014,23,A014,"Tibetan-Himalayan Peoples",317,C0229,"Tibeto-Burman, other",1,3,"Asia, Northeast",ASI,Asia,Y,Y,,N,21.914218379974,101.17398043165
CH,China,20629,116911,Sangkong,Sangkong,2100,1,Y,sgk,Sangkong,1,4,"Ethnic Religions",5.000,2.000,23,A014,"Tibetan-Himalayan Peoples",317,C0229,"Tibeto-Burman, other",1,3,"Asia, Northeast",ASI,Asia,Y,Y,1,N,25.018919,102.721726
CH,China,18678,114304,Sani,Sani,138000,1,Y,ysn,Sani,0,4,"Ethnic Religions",3.000,0.150,23,A014,"Tibetan-Himalayan Peoples",317,C0229,"Tibeto-Burman, other",1,3,"Asia, Northeast",ASI,Asia,Y,Y,3,N,24.278,103.75900000005
